No tarea,tipo,Territorio,Gestor,Estado,Localidad,folio,FCO,NOMPRO,CLV_UBICACION,nombre,USUARIO,ID_UBICACION,TIPO_ASIGNACION,FECHA_ASIGNACION,HORA_ASIGNACION,id_asig,Latitude,Longitude,folio,FCO,dias
2,Libre,Occidente,Occidente 1,AGUASCALIENTES,AGUASCALIENTES,-,-,En Abril Upaxer te regala gasolina 2020,462,E10438_BP Pabellón,,173121,LIBRE,31/03/2020,14:11:55,1154480,22.147364,-102.29391,-,-,2
2,Libre,Occidente,Occidente 1,AGUASCALIENTES,AGUASCALIENTES,-,-,En Abril Upaxer te regala gasolina 2020,463,E10080_BP Tepezalá,,173122,LIBRE,31/03/2020,14:11:55,1154481,22.170259,-102.246298,-,-,2
2,Libre,Occidente,Occidente 1,AGUASCALIENTES,CALVILLO,-,-,En Abril Upaxer te regala gasolina 2020,433,E03666_BP Calvillo,,166113,LIBRE,31/03/2020,14:11:55,1154446,21.854326,-102.694872,-,-,2
2,Libre,Occidente,Occidente 1,AGUASCALIENTES,CALVILLO,-,-,En Abril Upaxer te regala gasolina 2020,452,E11206_BP Jaltiche,,170788,LIBRE,31/03/2020,14:11:55,1154470,21.776794,-102.80259,-,-,2
1,Libre,Occidente,Occidente 1,AGUASCALIENTES,PABELLON DE ARTEAGA,200300654,24/04/2020,Durante ABRIL recorre los pasillos de un Minisuper y gana dinero,2866,2866 - Tienda Neto-Pabellon De Arteaga,,12165,LIBRE,30/03/2020,11:19:34,1152036,22.146035,-102.27557,200300654,24/04/2020,3
2,Libre,Occidente,Occidente 1,AGUASCALIENTES,RINCON DE ROMOS,-,-,En Abril Upaxer te regala gasolina 2020,441,E09826_BP Rincón de los Romo,,166121,LIBRE,31/03/2020,14:11:55,1154460,22.179008,-102.295989,-,-,2
1,Libre,Occidente,Occidente 1,AGUASCALIENTES,SAN FRANCISCO DE LOS ROMO,200300654,24/04/2020,Durante ABRIL recorre los pasillos de un Minisuper y gana dinero,403,San Francisco_Neto,,173541,LIBRE,30/03/2020,11:19:36,1152295,22.077949,-102.27271,200300654,24/04/2020,3
2,Libre,Pacífico,Pacífico 1,BAJA CALIFORNIA,ENSENADA,-,-,En Abril Upaxer te regala gasolina 2020,362,E05194_BP Coral,,158593,LIBRE,31/03/2020,14:11:55,1154392,31.864649,-116.60696,-,-,2
2,Libre,Pacífico,Pacífico 1,BAJA CALIFORNIA,ENSENADA,-,-,En Abril Upaxer te regala gasolina 2020,487,EA0045_BP San Quintín Sur,,174307,LIBRE,31/03/2020,14:11:55,1154504,30.550228,-115.938516,-,-,2
2,Libre,Pacífico,Pacífico 1,BAJA CALIFORNIA,ENSENADA,-,-,En Abril Upaxer te regala gasolina 2020,493,EA0007_BP Maneadero,,176037,LIBRE,31/03/2020,14:11:55,1154508,31.728337,-116.577772,-,-,2
2,Libre,Pacífico,Pacífico 1,BAJA CALIFORNIA,ENSENADA,-,-,En Abril Upaxer te regala gasolina 2020,511,EA0044_BP San Quintín Norte,,179100,LIBRE,31/03/2020,14:11:56,1154525,30.730201,-115.991436,-,-,2
2,Libre,Pacífico,Pacífico 1,BAJA CALIFORNIA,ENSENADA,-,-,En Abril Upaxer te regala gasolina 2020,52,E12105_BP Playitas,,158408,LIBRE,31/03/2020,14:11:56,1154532,31.870077,-116.67581,-,-,2
1,Libre,Pacífico,Pacífico 1,BAJA CALIFORNIA,MEXICALI,200300661,24/04/2020,En abril descubre cuánto vale tu prenda de oro,1037,BA EKT MEXICALI BLV LAZARO CARDENAS (1037),,118833,LIBRE,31/03/2020,12:56:48,1153160,32.60939,-115.383935,200300661,24/04/2020,2
1,Libre,Pacífico,Pacífico 1,BAJA CALIFORNIA,MEXICALI,200300661,24/04/2020,En abril descubre cuánto vale tu prenda de oro,2046,BA EKT MEXICALI VALLE DEL PEDREGAL (2046),,118835,LIBRE,31/03/2020,12:56:48,1153234,32.578364,-115.360266,200300661,24/04/2020,2
1,Libre,Pacífico,Pacífico 1,BAJA CALIFORNIA,MEXICALI,200300661,24/04/2020,En abril descubre cuánto vale tu prenda de oro,2230,BA EKT MEXICALI LAGUNA XOCHIMILCO (2230),,118911,LIBRE,31/03/2020,12:56:49,1153298,32.604056,-115.475898,200300661,24/04/2020,2
2,Libre,Pacífico,Pacífico 1,BAJA CALIFORNIA,MEXICALI,-,-,En Abril Upaxer te regala gasolina 2020,102,E10449_BP Anáhuac VIP,,158437,LIBRE,31/03/2020,14:11:53,1154139,32.63193,-115.475746,-,-,2
2,Libre,Pacífico,Pacífico 1,BAJA CALIFORNIA,MEXICALI,-,-,En Abril Upaxer te regala gasolina 2020,122,E06897_BP López Mateos,,158449,LIBRE,31/03/2020,14:11:53,1154161,32.632668,-115.462326,-,-,2
2,Libre,Pacífico,Pacífico 1,BAJA CALIFORNIA,MEXICALI,-,-,En Abril Upaxer te regala gasolina 2020,39,E09392_BP Cetys,,158398,LIBRE,31/03/2020,14:11:55,1154412,32.652508,-115.37595,-,-,2
2,Libre,Pacífico,Pacífico 1,BAJA CALIFORNIA,MEXICALI,-,-,En Abril Upaxer te regala gasolina 2020,427,E08899_BP La Tercera,,158625,LIBRE,31/03/2020,14:11:55,1154440,32.289417,-115.110869,-,-,2
2,Libre,Pacífico,Pacífico 1,BAJA CALIFORNIA,MEXICALI,-,-,En Abril Upaxer te regala gasolina 2020,46,E09942_BP Calz. 1810,,158403,LIBRE,31/03/2020,14:11:55,1154477,32.609596,-115.43866,-,-,2
2,Libre,Pacífico,Pacífico 1,BAJA CALIFORNIA,MEXICALI,-,-,En Abril Upaxer te regala gasolina 2020,49,E11031_BP KM 43,,158405,LIBRE,31/03/2020,14:11:55,1154506,32.288765,-115.097244,-,-,2
2,Libre,Pacífico,Pacífico 1,BAJA CALIFORNIA,MEXICALI,-,-,En Abril Upaxer te regala gasolina 2020,55,E12585_BP Tecnológico VIP,,158410,LIBRE,31/03/2020,14:11:56,1154543,32.619694,-115.401505,-,-,2
2,Libre,Pacífico,Pacífico 1,BAJA CALIFORNIA,MEXICALI,-,-,En Abril Upaxer te regala gasolina 2020,69,E11489_BP Justo Sierra,,158417,LIBRE,31/03/2020,14:11:56,1154558,32.65301,-115.45292,-,-,2
2,Libre,Pacífico,Pacífico 1,BAJA CALIFORNIA,MEXICALI,-,-,En Abril Upaxer te regala gasolina 2020,71,E13215_BP Vista Hermosa,,158419,LIBRE,31/03/2020,14:11:56,1154561,32.659134,-115.42114,-,-,2
2,Libre,Pacífico,Pacífico 1,BAJA CALIFORNIA,MEXICALI,-,-,En Abril Upaxer te regala gasolina 2020,72,E11956_BP Montecarlo,,158420,LIBRE,31/03/2020,14:11:56,1154562,32.638126,-115.39249,-,-,2
2,Libre,Pacífico,Pacífico 1,BAJA CALIFORNIA,MEXICALI,-,-,En Abril Upaxer te regala gasolina 2020,80,E10496_BP Lázaro Cárdenas,,158424,LIBRE,31/03/2020,14:11:56,1154571,32.599648,-115.370094,-,-,2
2,Libre,Pacífico,Pacífico 1,BAJA CALIFORNIA,MEXICALI,-,-,En Abril Upaxer te regala gasolina 2020,86,E11024_BP Terán,,158427,LIBRE,31/03/2020,14:11:56,1154577,32.61353,-115.51478,-,-,2
2,Libre,Pacífico,Pacífico 1,BAJA CALIFORNIA,MEXICALI,-,-,En Abril Upaxer te regala gasolina 2020,87,E11055_BP Puebla,,158428,LIBRE,31/03/2020,14:11:56,1154578,32.56965,-115.33946,-,-,2
2,Libre,Pacífico,Pacífico 1,BAJA CALIFORNIA,MEXICALI,-,-,En Abril Upaxer te regala gasolina 2020,91,E12584_BP Islas Agrarias,,158429,LIBRE,31/03/2020,14:11:56,1154583,32.6138,-115.38198,-,-,2
2,Libre,Pacífico,Pacífico 1,BAJA CALIFORNIA,MEXICALI,-,-,En Abril Upaxer te regala gasolina 2020,92,E01827_BP Centro Cívico,,158430,LIBRE,31/03/2020,14:11:56,1154584,32.643635,-115.478052,-,-,2
2,Libre,Pacífico,Pacífico 1,BAJA CALIFORNIA,MEXICALI,-,-,En Abril Upaxer te regala gasolina 2020,93,E10456_BP CEG Gómez Morín,,158431,LIBRE,31/03/2020,14:11:56,1154585,32.620997,-115.418354,-,-,2
2,Libre,Pacífico,Pacífico 1,BAJA CALIFORNIA,MEXICALI,-,-,En Abril Upaxer te regala gasolina 2020,95,E10560_BP Río Nuevo,,158432,LIBRE,31/03/2020,14:11:56,1154587,32.650352,-115.48568,-,-,2
2,Libre,Pacífico,Pacífico 1,BAJA CALIFORNIA,MEXICALI,-,-,En Abril Upaxer te regala gasolina 2020,96,E12112_BP Américas,,158433,LIBRE,31/03/2020,14:11:56,1154588,32.66246,-115.44815,-,-,2
2,Libre,Pacífico,Pacífico 1,BAJA CALIFORNIA,MEXICALI,-,-,En Abril Upaxer te regala gasolina 2020,97,E12861_BP Portales,,158434,LIBRE,31/03/2020,14:11:56,1154589,32.595818,-115.4931,-,-,2
1,Libre,Pacífico,Pacífico 1,BAJA CALIFORNIA,MEXICALI,200100123,05/04/2020,Gana dinero pidiendo información de un producto del banco_1,5843,BA EKT MEXICALI COLEGIO MILITAR,,69303,LIBRE,,,1154834,32.644426,-115.505502,200100123,05/04/2020,1
1,Libre,Pacífico,Pacífico 1,BAJA CALIFORNIA,PLAYAS DE ROSARITO,200300661,24/04/2020,En abril descubre cuánto vale tu prenda de oro,8332,BA EKT EL ROSARITO (8332),,118822,LIBRE,31/03/2020,12:56:51,1153612,32.358095,-117.058603,200300661,24/04/2020,2
2,Libre,Pacífico,Pacífico 1,BAJA CALIFORNIA,PLAYAS DE ROSARITO,-,-,En Abril Upaxer te regala gasolina 2020,245,E10476_BP Puente Machado,,158512,LIBRE,31/03/2020,14:11:54,1154289,32.366006,-117.054458,-,-,2
2,Libre,Pacífico,Pacífico 1,BAJA CALIFORNIA,PLAYAS DE ROSARITO,-,-,En Abril Upaxer te regala gasolina 2020,40,E12325_BP Rosarito,,158399,LIBRE,31/03/2020,14:11:55,1154421,32.399956,-117.0527,-,-,2
2,Libre,Pacífico,Pacífico 1,BAJA CALIFORNIA,PLAYAS DE ROSARITO,-,-,En Abril Upaxer te regala gasolina 2020,73,E13216_BP Cantamar,,158421,LIBRE,31/03/2020,14:11:56,1154563,32.227231,-116.920619,-,-,2
1,Libre,Pacífico,Pacífico 1,BAJA CALIFORNIA,TECATE,200300661,24/04/2020,En abril descubre cuánto vale tu prenda de oro,2367,BA EKT TECATE (2367),,118816,LIBRE,31/03/2020,12:56:49,1153304,32.573013,-116.63383,200300661,24/04/2020,2
2,Libre,Pacífico,Pacífico 1,BAJA CALIFORNIA,TECATE,-,-,En Abril Upaxer te regala gasolina 2020,41,E09098_BP Encino,,158400,LIBRE,31/03/2020,14:11:55,1154427,32.54594,-116.6254,-,-,2
2,Libre,Pacífico,Pacífico 1,BAJA CALIFORNIA,TECATE,-,-,En Abril Upaxer te regala gasolina 2020,61,E09627_BP Descanso,,158413,LIBRE,31/03/2020,14:11:56,1154550,32.570995,-116.6051,-,-,2
2,Libre,Pacífico,Pacífico 1,BAJA CALIFORNIA,TECATE,-,-,En Abril Upaxer te regala gasolina 2020,66,E02591_BP Napa,,158416,LIBRE,31/03/2020,14:11:56,1154555,32.57262,-116.63588,-,-,2
1,Libre,Pacífico,Pacífico 1,BAJA CALIFORNIA,TIJUANA,200300661,24/04/2020,En abril descubre cuánto vale tu prenda de oro,127,BA MEGA TIJUANA LAS TORRES (127),,118813,LIBRE,31/03/2020,12:56:48,1153178,32.477984,-116.875817,200300661,24/04/2020,2
1,Libre,Pacífico,Pacífico 1,BAJA CALIFORNIA,TIJUANA,200300661,24/04/2020,En abril descubre cuánto vale tu prenda de oro,5568,BA MEGA TIJUANA EL FLORIDO (5568),,118814,LIBRE,31/03/2020,12:56:50,1153463,32.497613,-116.887342,200300661,24/04/2020,2
1,Libre,Pacífico,Pacífico 1,BAJA CALIFORNIA,TIJUANA,200300661,24/04/2020,En abril descubre cuánto vale tu prenda de oro,6012,BA EKT TIJUANA PLAZA GIRASOL (6012),,118828,LIBRE,31/03/2020,12:56:50,1153491,32.44517,-117.03337,200300661,24/04/2020,2
2,Libre,Pacífico,Pacífico 1,BAJA CALIFORNIA,TIJUANA,-,-,En Abril Upaxer te regala gasolina 2020,105,E12808_BP Casa Blanca,,158438,LIBRE,31/03/2020,14:11:53,1154142,32.502133,-116.880225,-,-,2
2,Libre,Pacífico,Pacífico 1,BAJA CALIFORNIA,TIJUANA,-,-,En Abril Upaxer te regala gasolina 2020,109,E02648_BP Centro,,158439,LIBRE,31/03/2020,14:11:53,1154146,32.525907,-117.034045,-,-,2
2,Libre,Pacífico,Pacífico 1,BAJA CALIFORNIA,TIJUANA,-,-,En Abril Upaxer te regala gasolina 2020,110,E05672_BP Insurgentes,,158440,LIBRE,31/03/2020,14:11:53,1154148,32.490586,-116.92727,-,-,2
2,Libre,Pacífico,Pacífico 1,BAJA CALIFORNIA,TIJUANA,-,-,En Abril Upaxer te regala gasolina 2020,172,E04805_BP Bayón,,158473,LIBRE,31/03/2020,14:11:53,1154211,32.514176,-116.888941,-,-,2
2,Libre,Pacífico,Pacífico 1,BAJA CALIFORNIA,TIJUANA,-,-,En Abril Upaxer te regala gasolina 2020,220,E10348_BP UABC,,158493,LIBRE,31/03/2020,14:11:53,1154264,32.531158,-116.958756,-,-,2
2,Libre,Pacífico,Pacífico 1,BAJA CALIFORNIA,TIJUANA,-,-,En Abril Upaxer te regala gasolina 2020,221,E02642_BP La Mesa,,158494,LIBRE,31/03/2020,14:11:54,1154265,32.503004,-116.972999,-,-,2
2,Libre,Pacífico,Pacífico 1,BAJA CALIFORNIA,TIJUANA,-,-,En Abril Upaxer te regala gasolina 2020,222,EA0004_BP La Cuesta,,158495,LIBRE,31/03/2020,14:11:54,1154266,32.481865,-117.00962,-,-,2
2,Libre,Pacífico,Pacífico 1,BAJA CALIFORNIA,TIJUANA,-,-,En Abril Upaxer te regala gasolina 2020,233,E12942_BP Viveros,,158503,LIBRE,31/03/2020,14:11:54,1154278,32.446422,-116.875244,-,-,2
2,Libre,Pacífico,Pacífico 1,BAJA CALIFORNIA,TIJUANA,-,-,En Abril Upaxer te regala gasolina 2020,234,EA0005_BP Playas,,158504,LIBRE,31/03/2020,14:11:54,1154279,32.53632,-117.09395,-,-,2
2,Libre,Pacífico,Pacífico 1,BAJA CALIFORNIA,TIJUANA,-,-,En Abril Upaxer te regala gasolina 2020,238,E12328_BP Díaz Ordaz,,158508,LIBRE,31/03/2020,14:11:54,1154283,32.485218,-116.944016,-,-,2
2,Libre,Pacífico,Pacífico 1,BAJA CALIFORNIA,TIJUANA,-,-,En Abril Upaxer te regala gasolina 2020,244,E12911_BP Galeana,,158511,LIBRE,31/03/2020,17:52:56,1154708,32.529804,-117.034952,-,-,2
2,Libre,Pacífico,Pacífico 1,BAJA CALIFORNIA,TIJUANA,-,-,En Abril Upaxer te regala gasolina 2020,271,E13395_BP San Antonio de los Buenos,,158527,LIBRE,31/03/2020,14:11:54,1154316,32.43728,-117.02215,-,-,2
2,Libre,Pacífico,Pacífico 1,BAJA CALIFORNIA,TIJUANA,-,-,En Abril Upaxer te regala gasolina 2020,330,E11678_BP Rancho Viejo,,158569,LIBRE,31/03/2020,14:11:54,1154366,32.538746,-117.02894,-,-,2
2,Libre,Pacífico,Pacífico 1,BAJA CALIFORNIA,TIJUANA,-,-,En Abril Upaxer te regala gasolina 2020,349,E11442_BP Peñasco,,158581,LIBRE,31/03/2020,17:36:12,1154656,32.53699,-117.03215,-,-,2
2,Libre,Pacífico,Pacífico 1,BAJA CALIFORNIA,TIJUANA,-,-,En Abril Upaxer te regala gasolina 2020,350,E12522_BP Buenavista,,158582,LIBRE,31/03/2020,14:11:54,1154381,32.521732,-116.986248,-,-,2
2,Libre,Pacífico,Pacífico 1,BAJA CALIFORNIA,TIJUANA,-,-,En Abril Upaxer te regala gasolina 2020,351,E08972_BP Otay,,158583,LIBRE,31/03/2020,14:11:54,1154382,32.54381,-116.93082,-,-,2
2,Libre,Pacífico,Pacífico 1,BAJA CALIFORNIA,TIJUANA,-,-,En Abril Upaxer te regala gasolina 2020,397,E11886_BP Juan Ruíz de Alarcón,,158613,LIBRE,31/03/2020,14:11:55,1154417,32.542633,-116.93019,-,-,2
2,Libre,Pacífico,Pacífico 1,BAJA CALIFORNIA,TIJUANA,-,-,En Abril Upaxer te regala gasolina 2020,447,EA0024_BP Playas Rosarito,,166127,LIBRE,31/03/2020,14:11:55,1154464,32.359867,-117.058716,-,-,2
2,Libre,Pacífico,Pacífico 1,BAJA CALIFORNIA,TIJUANA,-,-,En Abril Upaxer te regala gasolina 2020,54,E11531_BP Valle de las Palmas,,158409,LIBRE,31/03/2020,14:11:56,1154542,32.473003,-116.745514,-,-,2
1,Libre,Pacífico,Pacífico 1,BAJA CALIFORNIA,TIJUANA,200100123,05/04/2020,Gana dinero pidiendo información de un crédito del banco_1,5142,BA PRESTA PRENDA GUAYCURA TIJUANA,,70835,LIBRE,,,1154892,32.506395,-116.917389,200100123,05/04/2020,1
1,Libre,Pacífico,Pacífico 1,BAJA CALIFORNIA SUR,LOS CABOS,200300661,24/04/2020,En abril descubre cuánto vale tu prenda de oro,6622,BA MEGA SAN JOSE DEL CABO,,33207,LIBRE,31/03/2020,12:58:22,1154062,23.057865,-109.70374,200300661,24/04/2020,2
1,Libre,Pacífico,Pacífico 1,BAJA CALIFORNIA SUR,PAZ LA,200300661,24/04/2020,En abril descubre cuánto vale tu prenda de oro,5116,BA EKT LA PAZ FORJADORES (5116),,118888,LIBRE,31/03/2020,12:56:49,1153437,24.138177,-110.31234,200300661,24/04/2020,2
1,Libre,Pacífico,Pacífico 1,BAJA CALIFORNIA SUR,PAZ LA,200300661,24/04/2020,En abril descubre cuánto vale tu prenda de oro,5429,BA MEGA LA PAZ OCAMPO (5429),,118890,LIBRE,31/03/2020,12:56:50,1153453,24.158091,-110.316588,200300661,24/04/2020,2
1,Libre,Sur,Sur 1,CAMPECHE,CALKINI,200300661,24/04/2020,En abril descubre cuánto vale tu prenda de oro,6103,BA EKT CAMPECHE CALKINI (6103),,120427,LIBRE,31/03/2020,12:56:50,1153514,20.371163,-90.050267,200300661,24/04/2020,2
1,Libre,Sur,Sur 1,CAMPECHE,CAMPECHE,200300661,24/04/2020,En abril descubre cuánto vale tu prenda de oro,196,BA EKT CAMPECHE ALAMEDA (196),,119431,LIBRE,31/03/2020,12:56:48,1153219,19.841053,-90.535337,200300661,24/04/2020,2
1,Libre,Sur,Sur 1,CAMPECHE,CAMPECHE,200300661,24/04/2020,En abril descubre cuánto vale tu prenda de oro,2516,BA MEGA CAMPECHE BLVD49 (2516),,119430,LIBRE,31/03/2020,12:56:49,1153316,19.844976,-90.53329,200300661,24/04/2020,2
1,Libre,Sur,Sur 1,CAMPECHE,CAMPECHE,200300661,24/04/2020,En abril descubre cuánto vale tu prenda de oro,4015,BA PRESTA PRENDA PATRICIO TRUEBA CAMPECHE (4015),,118321,LIBRE,31/03/2020,12:57:51,1153826,19.829597,-90.535027,200300661,24/04/2020,2
1,Libre,Sur,Sur 1,CAMPECHE,CAMPECHE,200300661,24/04/2020,En abril descubre cuánto vale tu prenda de oro,5296,BA PRESTA PRENDA CAMPECHE NL (5296),,118355,LIBRE,31/03/2020,12:57:51,1153886,19.845705,-90.53456,200300661,24/04/2020,2
1,Libre,Sur,Sur 1,CAMPECHE,CARMEN,200300654,24/04/2020,Durante ABRIL recorre los pasillos de un Minisuper y gana dinero,1256,1256 - Tienda Neto-Ixmiquilpan,,11657,LIBRE,30/03/2020,11:19:32,1151875,20.485128,-99.21444,200300654,24/04/2020,3
1,Libre,Sur,Sur 1,CAMPECHE,CARMEN,200300661,24/04/2020,En abril descubre cuánto vale tu prenda de oro,1449,BA EKT CD DEL CARMEN (1449),,119362,LIBRE,31/03/2020,12:56:48,1153185,18.638456,-91.836075,200300661,24/04/2020,2
1,Libre,Sur,Sur 1,CAMPECHE,CARMEN,200300661,24/04/2020,En abril descubre cuánto vale tu prenda de oro,6761,BA MEGA CD DEL CARMEN (6761),,119363,LIBRE,31/03/2020,12:56:50,1153556,18.63881,-91.835526,200300661,24/04/2020,2
2,Libre,Sur,Sur 1,CAMPECHE,CARMEN,-,-,En Abril Upaxer te regala gasolina 2020,326,E10464_BP Atasta,,158565,LIBRE,31/03/2020,14:11:54,1154364,18.617222,-92.205358,-,-,2
2,Libre,Sur,Sur 1,CAMPECHE,CHAMPOTON,-,-,En Abril Upaxer te regala gasolina 2020,284,E06919_BP Las Brisas,,158536,LIBRE,31/03/2020,14:11:54,1154329,19.336699,-90.73506,-,-,2
1,Libre,Sur,Sur 1,CAMPECHE,ESCARCEGA,200300661,24/04/2020,En abril descubre cuánto vale tu prenda de oro,8285,BA EKT CANDELARIA (8285),,119872,LIBRE,31/03/2020,12:56:51,1153608,18.183537,-91.04576,200300661,24/04/2020,2
2,Libre,Sur,Sur 1,CAMPECHE,ESCARCEGA,-,-,En Abril Upaxer te regala gasolina 2020,305,E00375_BP Escárcega,,158551,LIBRE,31/03/2020,14:11:54,1154349,18.608573,-90.74678,-,-,2
2,Libre,Sur,Sur 1,CAMPECHE,TENABO,-,-,En Abril Upaxer te regala gasolina 2020,335,E07264_BP Tenabo,,158573,LIBRE,31/03/2020,14:11:54,1154370,20.030846,-90.223688,-,-,2
1,Libre,Sur,Sur 2,CHIAPAS,ARRIAGA,200300661,24/04/2020,En abril descubre cuánto vale tu prenda de oro,8651,BA EKT ARRIAGA (8651),,120986,LIBRE,31/03/2020,12:56:51,1153623,16.233325,-93.895663,200300661,24/04/2020,2
1,Libre,Sur,Sur 2,CHIAPAS,BOCHIL,200300661,24/04/2020,En abril descubre cuánto vale tu prenda de oro,1265,DAZ BOCHIL (1265),,118228,LIBRE,31/03/2020,12:57:51,1153776,16.995014,-92.89203,200300661,24/04/2020,2
1,Libre,Sur,Sur 2,CHIAPAS,CACAHOATAN,200300661,24/04/2020,En abril descubre cuánto vale tu prenda de oro,9856,DAZ CACAHOTAN CHIAPAS (9856),,121258,LIBRE,31/03/2020,12:57:51,1154011,14.989923,-92.16704,200300661,24/04/2020,2
1,Libre,Sur,Sur 2,CHIAPAS,CINTALAPA,200300661,24/04/2020,En abril descubre cuánto vale tu prenda de oro,6240,BA MEGA CINTALAPA (6240),,119454,LIBRE,31/03/2020,12:56:50,1153533,16.696339,-93.722336,200300661,24/04/2020,2
1,Libre,Sur,Sur 2,CHIAPAS,COMITAN DE DOMINGUEZ,200300661,24/04/2020,En abril descubre cuánto vale tu prenda de oro,4225,MEGA COMITAN II CHIAPAS,,179087,LIBRE,31/03/2020,13:33:00,1154104,16.239917,-92.136835,200300661,24/04/2020,2
1,Libre,Sur,Sur 2,CHIAPAS,COMITAN DE DOMINGUEZ,200300661,24/04/2020,En abril descubre cuánto vale tu prenda de oro,8184,DAZ MIGO LAS ROSAS CHIAPAS (8184),,118112,LIBRE,31/03/2020,12:57:51,1153972,16.365057,-92.370173,200300661,24/04/2020,2
1,Libre,Sur,Sur 2,CHIAPAS,ESCUINTLA,200300661,24/04/2020,En abril descubre cuánto vale tu prenda de oro,9861,DAZ ALVARO OBREGON ESCUINTLA (9861),,121259,LIBRE,31/03/2020,12:57:52,1154017,15.320484,-92.658043,200300661,24/04/2020,2
1,Libre,Sur,Sur 2,CHIAPAS,FRONTERA COMALAPA,200300661,24/04/2020,En abril descubre cuánto vale tu prenda de oro,2057,BA EKT CHIAPAS COMALAPA (2057),,119380,LIBRE,31/03/2020,12:56:48,1153238,15.658685,-92.141792,200300661,24/04/2020,2
1,Libre,Sur,Sur 2,CHIAPAS,FRONTERA COMALAPA,200300661,24/04/2020,En abril descubre cuánto vale tu prenda de oro,5933,BA PRESTA PRENDA CTRAL SUR FRONTERA COMALAPA (5933),,118278,LIBRE,31/03/2020,12:57:51,1153944,15.658847,-92.141115,200300661,24/04/2020,2
1,Libre,Sur,Sur 2,CHIAPAS,HUIXTLA,200300661,24/04/2020,En abril descubre cuánto vale tu prenda de oro,4684,BA PRESTA PRENDA HUIXTLA (4684),,118384,LIBRE,31/03/2020,12:57:51,1153845,15.13897,-92.464615,200300661,24/04/2020,2
1,Libre,Sur,Sur 2,CHIAPAS,JIQUIPILAS,200300661,24/04/2020,En abril descubre cuánto vale tu prenda de oro,9888,DAZ JIQUIPILAS (9888),,121340,LIBRE,31/03/2020,12:57:52,1154019,16.667624,-93.648776,200300661,24/04/2020,2
1,Libre,Sur,Sur 2,CHIAPAS,MAPASTEPEC,200300661,24/04/2020,En abril descubre cuánto vale tu prenda de oro,4601,DAZ MAPASTEPEC (4601),,118226,LIBRE,31/03/2020,12:57:51,1153837,15.434708,-92.900406,200300661,24/04/2020,2
1,Libre,Sur,Sur 2,CHIAPAS,MOTOZINTLA,200300661,24/04/2020,En abril descubre cuánto vale tu prenda de oro,4602,PRESTA PRENDA MOTOZINTLA (4602),,123302,LIBRE,31/03/2020,12:57:51,1153838,15.365077,-92.24727,200300661,24/04/2020,2
2,Libre,Sur,Sur 2,CHIAPAS,SAN FERNANDO,-,-,En Abril Upaxer te regala gasolina 2020,352,E13499_BP Cañón del Sumidero,,158584,LIBRE,31/03/2020,14:11:54,1154383,16.85192,-93.19766,-,-,2
1,Libre,Sur,Sur 2,CHIAPAS,SUCHIATE,200300661,24/04/2020,En abril descubre cuánto vale tu prenda de oro,2078,BA EKT CHIAPAS CD HIDALGO (2078),,119379,LIBRE,31/03/2020,12:56:48,1153246,14.678709,-92.150634,200300661,24/04/2020,2
1,Libre,Sur,Sur 2,CHIAPAS,TAPACHULA,200300661,24/04/2020,En abril descubre cuánto vale tu prenda de oro,1083,BA EKT TONALA CHIS (1083),,119377,LIBRE,31/03/2020,12:56:48,1153165,16.0913,-93.75265,200300661,24/04/2020,2
1,Libre,Sur,Sur 2,CHIAPAS,TEOPISCA,200300661,24/04/2020,En abril descubre cuánto vale tu prenda de oro,5823,DAZ TEOPISCA (5823),,118198,LIBRE,31/03/2020,12:57:51,1153921,16.542598,-92.473165,200300661,24/04/2020,2
1,Libre,Sur,Sur 2,CHIAPAS,TUXTLA CHICO,200300661,24/04/2020,En abril descubre cuánto vale tu prenda de oro,5072,BA PRESTA PRENDA TUXTLA CHICO (5072),,119926,LIBRE,31/03/2020,12:57:51,1153879,14.940469,-92.169214,200300661,24/04/2020,2
2,Libre,Sur,Sur 2,CHIAPAS,TUXTLA GUTIERREZ,-,-,En Abril Upaxer te regala gasolina 2020,346,E12092_BP Caoba,,158578,LIBRE,31/03/2020,14:11:54,1154378,16.6973,-93.108229,-,-,2
1,Libre,Sur,Sur 2,CHIAPAS,VENUSTIANO CARRANZA,200300661,24/04/2020,En abril descubre cuánto vale tu prenda de oro,9464,BA MEGA V CARRANZA CHIS (9464),,119903,LIBRE,31/03/2020,12:56:51,1153639,16.338929,-92.564549,200300661,24/04/2020,2
1,Libre,Sur,Sur 2,CHIAPAS,VILLAFLORES,200300661,24/04/2020,En abril descubre cuánto vale tu prenda de oro,3049,BA MEGA VILLAFLORES (3049),,119461,LIBRE,31/03/2020,12:56:49,1153342,16.23379,-93.268361,200300661,24/04/2020,2
1,Libre,Sur,Sur 2,CHIAPAS,VILLAFLORES,200300661,24/04/2020,En abril descubre cuánto vale tu prenda de oro,5573,BA PRESTA PRENDA 1AVENIDA VILLAFLORES (5573),,118348,LIBRE,31/03/2020,12:57:51,1153906,16.235229,-93.269317,200300661,24/04/2020,2
1,Libre,Sur,Sur 2,CHIAPAS,VILLAFLORES,200300661,24/04/2020,En abril descubre cuánto vale tu prenda de oro,7169,BA EKT YAJALON CHIAPAS,,70315,LIBRE,31/03/2020,12:58:22,1154065,17.173995,-92.334757,200300661,24/04/2020,2
1,Libre,Norte,Norte 1,CHIHUAHUA,ALDAMA,200300661,24/04/2020,En abril descubre cuánto vale tu prenda de oro,4603,DAZ ALDAMA (4603),,118082,LIBRE,31/03/2020,12:57:51,1153839,28.837088,-105.91244,200300661,24/04/2020,2
2,Libre,Norte,Norte 1,CHIHUAHUA,CAMARGO,-,-,En Abril Upaxer te regala gasolina 2020,469,E12188_BP Rohana,,173484,LIBRE,31/03/2020,14:11:55,1154487,27.66652,-105.1784,-,-,2
2,Libre,Norte,Norte 1,CHIHUAHUA,CAMARGO,-,-,En Abril Upaxer te regala gasolina 2020,470,E10470_BP Camargo,,173486,LIBRE,31/03/2020,14:11:55,1154488,27.684605,-105.165436,-,-,2
2,Libre,Norte,Norte 1,CHIHUAHUA,CHIHUAHUA,-,-,En Abril Upaxer te regala gasolina 2020,501,E07636_BP Tecomatlan,,177779,LIBRE,31/03/2020,14:11:55,1154515,28.624163,-106.098874,-,-,2
2,Libre,Norte,Norte 1,CHIHUAHUA,CHIHUAHUA,-,-,En Abril Upaxer te regala gasolina 2020,530,E09032_BP Nueva Chihuahua,,181596,LIBRE,31/03/2020,14:11:56,1154539,28.698113,-106.008038,-,-,2
1,Libre,Norte,Norte 1,CHIHUAHUA,DELICIAS,200300661,24/04/2020,En abril descubre cuánto vale tu prenda de oro,6937,BA PRESTA PRENDA DELICIAS CHIHUAHUA (6937),,118265,LIBRE,31/03/2020,12:57:51,1153957,28.194583,-105.472529,200300661,24/04/2020,2
2,Libre,Norte,Norte 1,CHIHUAHUA,DELICIAS,-,-,En Abril Upaxer te regala gasolina 2020,471,E13270_BP Supra,,173487,LIBRE,31/03/2020,14:11:55,1154489,28.174925,-105.472946,-,-,2
1,Libre,Norte,Norte 1,CHIHUAHUA,HIDALGO DEL PARRAL,200100123,05/04/2020,Gana dinero pidiendo información de un crédito del banco_1,2771,DAZ PARRAL,,181044,LIBRE,,,1154893,26.935032,-105.68821,200100123,05/04/2020,1
1,Libre,Norte,Norte 1,CHIHUAHUA,JIMENEZ,200300661,24/04/2020,En abril descubre cuánto vale tu prenda de oro,6826,BA EKT JIMENEZ (6826),,118940,LIBRE,31/03/2020,12:56:50,1153561,27.129856,-104.92305,200300661,24/04/2020,2
1,Libre,Norte,Norte 1,CHIHUAHUA,JUAREZ,200300661,24/04/2020,En abril descubre cuánto vale tu prenda de oro,116,BA EKT CD JUAREZ TORRES (116),,118932,LIBRE,31/03/2020,12:56:48,1153174,31.640019,-106.389978,200300661,24/04/2020,2
1,Libre,Norte,Norte 1,CHIHUAHUA,JUAREZ,200300661,24/04/2020,En abril descubre cuánto vale tu prenda de oro,2001,BA EKT CD JUAREZ HENEQUEN (2001),,118931,LIBRE,31/03/2020,12:56:48,1153222,31.640739,-106.368377,200300661,24/04/2020,2
1,Libre,Norte,Norte 1,CHIHUAHUA,JUAREZ,200300661,24/04/2020,En abril descubre cuánto vale tu prenda de oro,4912,BA MEGA CD JUAREZ PLAZA ALTAVISTA (4912),,118926,LIBRE,31/03/2020,12:56:49,1153426,31.754027,-106.500018,200300661,24/04/2020,2
1,Libre,Norte,Norte 1,CHIHUAHUA,JUAREZ,200300661,24/04/2020,En abril descubre cuánto vale tu prenda de oro,5102,BA MEGA CD JUAREZ MONUMENTO (5102),,118928,LIBRE,31/03/2020,12:56:49,1153436,31.739183,-106.482256,200300661,24/04/2020,2
1,Libre,Norte,Norte 1,CHIHUAHUA,JUAREZ,200300661,24/04/2020,En abril descubre cuánto vale tu prenda de oro,8031,BA EKT CD JUAREZ JILOTEPEC (8031),,118933,LIBRE,31/03/2020,12:56:50,1153600,31.66849,-106.411118,200300661,24/04/2020,2
2,Libre,Norte,Norte 1,CHIHUAHUA,MEOQUI,-,-,En Abril Upaxer te regala gasolina 2020,510,E05690_BP San Felipe,,179106,LIBRE,31/03/2020,14:11:56,1154524,28.646131,-106.128652,-,-,2
2,Libre,Norte,Norte 1,CHIHUAHUA,OJINAGA,-,-,En Abril Upaxer te regala gasolina 2020,475,E01378_BP Ojinaga,,174177,LIBRE,31/03/2020,14:11:55,1154493,29.557608,-104.404205,-,-,2
2,Libre,Norte,Norte 1,CHIHUAHUA,OJINAGA,-,-,En Abril Upaxer te regala gasolina 2020,476,E03338_BP Jeroah,,174178,LIBRE,31/03/2020,14:11:55,1154494,29.550913,-104.42353,-,-,2
2,Libre,Norte,Norte 1,COAHUILA,RAMOS ARIZPE,-,-,En Abril Upaxer te regala gasolina 2020,388,EA0014_BP Irkon I,,158608,LIBRE,31/03/2020,14:11:55,1154410,25.63554,-100.767567,-,-,2
2,Libre,Norte,Norte 1,COAHUILA,RAMOS ARIZPE,-,-,En Abril Upaxer te regala gasolina 2020,415,EA0015_BP Irkon II,,158621,LIBRE,31/03/2020,14:11:55,1154432,25.634673,-100.76769,-,-,2
2,Libre,Norte,Norte 1,COAHUILA,TORREON,-,-,En Abril Upaxer te regala gasolina 2020,361,E06933_BP Triángulo Abastos,,158592,LIBRE,31/03/2020,14:11:54,1154391,25.558079,-103.420128,-,-,2
2,Libre,Norte,Norte 1,COAHUILA,TORREON,-,-,En Abril Upaxer te regala gasolina 2020,376,E07864_BP Palmas,,158603,LIBRE,31/03/2020,14:11:55,1154404,25.572525,-103.425325,-,-,2
1,Libre,Occidente,Occidente 2,COLIMA,COLIMA,200300661,24/04/2020,En abril descubre cuánto vale tu prenda de oro,1768,PRESTA PRENDA QUESERIA (1768),,122350,LIBRE,31/03/2020,12:57:51,1153787,19.385872,-103.57417,200300661,24/04/2020,2
2,Libre,Occidente,Occidente 2,COLIMA,COLIMA,-,-,En Abril Upaxer te regala gasolina 2020,377,E12064_BP El Tecolote,,159305,LIBRE,31/03/2020,14:11:55,1154405,19.22569,-103.72293,-,-,2
1,Libre,Occidente,Occidente 3,COLIMA,MANZANILLO,200300661,24/04/2020,En abril descubre cuánto vale tu prenda de oro,175,BA EKT MANZANILLO SALAHUA (175),,119342,LIBRE,31/03/2020,12:56:48,1153206,19.10878,-104.33635,200300661,24/04/2020,2
1,Libre,Occidente,Occidente 3,COLIMA,MANZANILLO,200300661,24/04/2020,En abril descubre cuánto vale tu prenda de oro,6745,BA MEGA MANZANILLO (6745),,119340,LIBRE,31/03/2020,12:56:50,1153554,19.053425,-104.31494,200300661,24/04/2020,2
1,Libre,Occidente,Occidente 2,COLIMA,TECOMAN,200300661,24/04/2020,En abril descubre cuánto vale tu prenda de oro,2273,BA EKT TECOMAN (2273),,119341,LIBRE,31/03/2020,12:56:49,1153300,18.909891,-103.873661,200300661,24/04/2020,2
2,Libre,Centro Poniente,Centro Poniente 2,DISTRITO FEDERAL,CUAJIMALPA DE MORELOS,-,-,En Abril Upaxer te regala gasolina 2020,385,E04594_BP Contadero,,159306,LIBRE,31/03/2020,17:45:48,1154672,19.350065,-99.30242,-,-,2
1,Libre,Centro Oriente,Centro Oriente 1,DISTRITO FEDERAL,IZTAPALAPA,200300654,24/04/2020,Durante ABRIL recorre los pasillos de un Minisuper y gana dinero,172,El Lobito,,179916,LIBRE,30/03/2020,11:19:33,1151928,19.407164,-99.522823,200300654,24/04/2020,3
2,Libre,Centro Poniente,Centro Poniente 2,DISTRITO FEDERAL,MIGUEL HIDALGO,-,-,En Abril Upaxer te regala gasolina 2020,1,E05678_BP Satélite,,159154,LIBRE,31/03/2020,14:11:52,1154135,19.499888,-99.237641,-,-,2
2,Libre,Norte,Norte 1,DURANGO,DURANGO,-,-,En Abril Upaxer te regala gasolina 2020,454,E10830_BP Francisco Fournier,,173113,LIBRE,31/03/2020,14:11:55,1154471,24.029528,-104.64767,-,-,2
2,Libre,Norte,Norte 1,DURANGO,DURANGO,-,-,En Abril Upaxer te regala gasolina 2020,455,E05119_BP Francisco Villa,,173114,LIBRE,31/03/2020,14:11:55,1154472,24.04688,-104.624846,-,-,2
2,Libre,Norte,Norte 1,DURANGO,GOMEZ PALACIO,-,-,En Abril Upaxer te regala gasolina 2020,399,E09328_BP La Encantada,,158614,LIBRE,31/03/2020,14:11:55,1154419,25.57944,-103.470375,-,-,2
1,Libre,Norte,Norte 1,DURANGO,GUADALUPE VICTORIA,200100123,05/04/2020,Gana dinero pidiendo información de un producto del banco_1,6180,BA EKT GUADALUPE VICTORIA VALDES,,70007,LIBRE,,,1154753,24.446972,-104.12367,200100123,05/04/2020,2
1,Libre,Norte,Norte 1,DURANGO,GUADALUPE VICTORIA,200100125,05/04/2020,Haz un trámite en la caja del banco y gana dinero_1,6180,BA EKT GUADALUPE VICTORIA VALDES,,70007,LIBRE,,,1154752,24.446972,-104.12367,200100125,05/04/2020,2
1,Libre,Occidente,Occidente 1,GUANAJUATO,ALLENDE,200300654,24/04/2020,Durante ABRIL recorre los pasillos de un Minisuper y gana dinero,1127,1127 - Tienda Neto-San Miguel Allende,,18517,LIBRE,30/03/2020,11:19:32,1151837,20.914306,-100.75518,200300654,24/04/2020,3
2,Libre,Occidente,Occidente 1,GUANAJUATO,ALLENDE,-,-,En Abril Upaxer te regala gasolina 2020,317,E11740_BP San Miguel de allende 3,,159293,LIBRE,31/03/2020,14:11:54,1154358,20.901406,-100.755675,-,-,2
2,Libre,Occidente,Occidente 1,GUANAJUATO,ALLENDE,-,-,En Abril Upaxer te regala gasolina 2020,79,E06422_BP San Miguel de Allende,,159201,LIBRE,31/03/2020,14:11:56,1154569,20.90505,-100.72421,-,-,2
2,Libre,Occidente,Occidente 2,GUANAJUATO,CELAYA,-,-,En Abril Upaxer te regala gasolina 2020,531,EA0052_BP Manchuca,,181597,LIBRE,31/03/2020,14:11:56,1154540,20.452456,-100.776865,-,-,2
1,Libre,Occidente,Occidente 1,GUANAJUATO,DOLORES HIDALGO,200300654,24/04/2020,Durante ABRIL recorre los pasillos de un Minisuper y gana dinero,1901,1901 - Tienda Neto-Dolores Hidalgo,,12012,LIBRE,30/03/2020,11:19:33,1151945,21.156193,-100.93568,200300654,24/04/2020,3
1,Libre,Occidente,Occidente 1,GUANAJUATO,DOLORES HIDALGO,200300661,24/04/2020,En abril descubre cuánto vale tu prenda de oro,2770,BA MEGA LOS HEROES DOLORES,,117801,LIBRE,31/03/2020,12:58:22,1154036,21.156816,-100.920846,200300661,24/04/2020,2
1,Libre,Occidente,Occidente 1,GUANAJUATO,DOLORES HIDALGO,200300661,24/04/2020,En abril descubre cuánto vale tu prenda de oro,4867,BA PRESTA PRENDA GUERRERO DOLORES HGO (4867),,118373,LIBRE,31/03/2020,12:57:51,1153874,21.156513,-100.933738,200300661,24/04/2020,2
2,Libre,Occidente,Occidente 1,GUANAJUATO,DOLORES HIDALGO,-,-,En Abril Upaxer te regala gasolina 2020,366,E06741_BP Entronque,,159304,LIBRE,31/03/2020,14:11:55,1154396,21.17156,-100.8935,-,-,2
2,Libre,Occidente,Occidente 1,GUANAJUATO,DOLORES HIDALGO,-,-,En Abril Upaxer te regala gasolina 2020,504,E05114_BP Servicio El Rosario,,177782,LIBRE,31/03/2020,14:11:55,1154518,21.165591,-100.937542,-,-,2
2,Libre,Occidente,Occidente 1,GUANAJUATO,GUANAJUATO,-,-,En Abril Upaxer te regala gasolina 2020,453,EA0028_BP Atesa,,170789,LIBRE,31/03/2020,17:52:56,1154727,20.929144,-101.29205,-,-,2
1,Libre,Occidente,Occidente 2,GUANAJUATO,IRAPUATO,200300654,24/04/2020,Durante ABRIL recorre los pasillos de un Minisuper y gana dinero,361,SP EL ENCANTO (361),,170933,LIBRE,30/03/2020,11:19:41,1152743,20.681093,-101.35267,200300654,24/04/2020,3
1,Libre,Occidente,Occidente 2,GUANAJUATO,IRAPUATO,200300661,24/04/2020,En abril descubre cuánto vale tu prenda de oro,9752,BA MEGA SAN ROQUE IRAPUATO (9752),,121386,LIBRE,,,1154993,20.66018,-101.34082,200300661,24/04/2020,0
2,Libre,Occidente,Occidente 1,GUANAJUATO,LEON,-,-,En Abril Upaxer te regala gasolina 2020,103,E05998_BP Hilamas,,159211,LIBRE,31/03/2020,14:11:53,1154140,21.132741,-101.71661,-,-,2
2,Libre,Occidente,Occidente 1,GUANAJUATO,LEON,-,-,En Abril Upaxer te regala gasolina 2020,106,E07253_BP Pasama,,159213,LIBRE,31/03/2020,14:11:53,1154143,21.104089,-101.659632,-,-,2
2,Libre,Occidente,Occidente 1,GUANAJUATO,LEON,-,-,En Abril Upaxer te regala gasolina 2020,107,E12518_BP León II,,159214,LIBRE,31/03/2020,14:11:53,1154144,21.159291,-101.707263,-,-,2
2,Libre,Occidente,Occidente 1,GUANAJUATO,LEON,-,-,En Abril Upaxer te regala gasolina 2020,108,E06664_BP León I,,159215,LIBRE,31/03/2020,14:11:53,1154145,21.137993,-101.641979,-,-,2
2,Libre,Occidente,Occidente 1,GUANAJUATO,LEON,-,-,En Abril Upaxer te regala gasolina 2020,149,E04994_BP Blvd. Hidalgo León,,159233,LIBRE,31/03/2020,14:11:53,1154186,21.150457,-101.669973,-,-,2
2,Libre,Occidente,Occidente 1,GUANAJUATO,LEON,-,-,En Abril Upaxer te regala gasolina 2020,162,E11008_BP Blvd. Fco. Villa,,159237,LIBRE,31/03/2020,14:11:53,1154201,21.14428,-101.63636,-,-,2
2,Libre,Occidente,Occidente 1,GUANAJUATO,LEON,-,-,En Abril Upaxer te regala gasolina 2020,364,EA0019_BP Jerez,,159303,LIBRE,31/03/2020,14:11:55,1154394,21.094068,-101.642056,-,-,2
2,Libre,Occidente,Occidente 1,GUANAJUATO,LEON,-,-,En Abril Upaxer te regala gasolina 2020,401,E03781_BP Jorge Negrete,,159311,LIBRE,31/03/2020,17:45:48,1154673,21.173873,-101.663037,-,-,2
2,Libre,Occidente,Occidente 1,GUANAJUATO,LEON,-,-,En Abril Upaxer te regala gasolina 2020,405,E03313_BP López Mateos,,159315,LIBRE,31/03/2020,17:45:48,1154676,21.097694,-101.630923,-,-,2
2,Libre,Occidente,Occidente 1,GUANAJUATO,LEON,-,-,En Abril Upaxer te regala gasolina 2020,434,E11188_BP Arbide,,159328,LIBRE,31/03/2020,14:11:55,1154448,21.122923,-101.69404,-,-,2
2,Libre,Occidente,Occidente 1,GUANAJUATO,LEON,-,-,En Abril Upaxer te regala gasolina 2020,443,E03613_BP Libramiento Norte,,159334,LIBRE,31/03/2020,17:45:48,1154687,21.172682,-101.663706,-,-,2
1,Libre,Occidente,Occidente 1,GUANAJUATO,MANUEL DOBLADO,200300654,24/04/2020,Durante ABRIL recorre los pasillos de un Minisuper y gana dinero,133,Ciudad Manuel Doblado,,179071,LIBRE,30/03/2020,11:19:32,1151884,20.72943,-101.951225,200300654,24/04/2020,3
1,Libre,Occidente,Occidente 2,GUANAJUATO,PENJAMO,200300661,24/04/2020,En abril descubre cuánto vale tu prenda de oro,4947,BA PRESTA PRENDA PENJAMO J MENDEZ (4947),,118377,LIBRE,31/03/2020,12:57:51,1153877,20.429857,-101.724245,200300661,24/04/2020,2
2,Libre,Occidente,Occidente 1,GUANAJUATO,PURISIMA DEL RINCON,-,-,En Abril Upaxer te regala gasolina 2020,272,E08187_BP Purísima,,159280,LIBRE,31/03/2020,14:11:54,1154317,21.02862,-101.872986,-,-,2
1,Libre,Occidente,Occidente 1,GUANAJUATO,SAN DIEGO DE LA UNION,200300661,24/04/2020,En abril descubre cuánto vale tu prenda de oro,708,DAZ SAN DIEGO DE LA UNION,,68727,LIBRE,31/03/2020,12:58:22,1154064,21.466545,-100.87194,200300661,24/04/2020,2
1,Libre,Occidente,Occidente 1,GUANAJUATO,SAN FELIPE,200300654,24/04/2020,Durante ABRIL recorre los pasillos de un Minisuper y gana dinero,7232,7232 - Tienda Neto-San Felipe Plaza Principal,,18356,LIBRE,30/03/2020,11:19:38,1152460,21.478455,-101.216295,200300654,24/04/2020,3
1,Libre,Occidente,Occidente 1,GUANAJUATO,SAN FELIPE,200300661,24/04/2020,En abril descubre cuánto vale tu prenda de oro,5806,BA EKT SAN FELIPE GUANAJUATO (5806),,121006,LIBRE,31/03/2020,12:56:50,1153479,21.476206,-101.21524,200300661,24/04/2020,2
2,Libre,Occidente,Occidente 1,GUANAJUATO,SAN FRANCISCO DEL RINCON,-,-,En Abril Upaxer te regala gasolina 2020,293,E10283_BP San Pancho,,159286,LIBRE,31/03/2020,14:11:54,1154337,20.99754,-101.85663,-,-,2
1,Libre,Occidente,Occidente 1,GUANAJUATO,SAN LUIS DE LA PAZ,200300661,24/04/2020,En abril descubre cuánto vale tu prenda de oro,2083,EKT GUANAJUATO SAN LUIS DE LA PAZ,,1525,LIBRE,31/03/2020,12:58:22,1154033,21.295471,-100.52421,200300661,24/04/2020,2
1,Libre,Occidente,Occidente 1,GUANAJUATO,SAN LUIS DE LA PAZ,200300661,24/04/2020,En abril descubre cuánto vale tu prenda de oro,9846,DAZ SAN LUIS DE LA PAZ (9846),,121235,LIBRE,31/03/2020,12:57:51,1154005,21.297862,-100.516958,200300661,24/04/2020,2
1,Libre,Occidente,Occidente 2,GUANAJUATO,VILLAGRAN,200300654,24/04/2020,Durante ABRIL recorre los pasillos de un Minisuper y gana dinero,2936,2936 - Tienda Neto-Villagran,,18714,LIBRE,,,1154809,20.510367,-100.995572,200300654,24/04/2020,1
1,Libre,Tierra Caliente,Tierra Caliente 1,GUERRERO,ACAPULCO DE JUAREZ,200300654,24/04/2020,Durante ABRIL recorre los pasillos de un Minisuper y gana dinero,0200,Neto-Paso limonero,,181593,LIBRE,30/03/2020,11:19:31,1151798,16.913569,-99.820006,200300654,24/04/2020,3
1,Libre,Tierra Caliente,Tierra Caliente 1,GUERRERO,ACAPULCO DE JUAREZ,200300654,24/04/2020,Durante ABRIL recorre los pasillos de un Minisuper y gana dinero,1027,1027 - Tienda Neto-San Jeronimo,,18514,LIBRE,30/03/2020,11:19:32,1151813,17.135715,-100.46934,200300654,24/04/2020,3
1,Libre,Tierra Caliente,Tierra Caliente 1,GUERRERO,ACAPULCO DE JUAREZ,200300654,24/04/2020,Durante ABRIL recorre los pasillos de un Minisuper y gana dinero,116,Acapulco Santa Cruz,,179041,LIBRE,30/03/2020,11:19:32,1151853,16.872433,-99.90304,200300654,24/04/2020,3
1,Libre,Tierra Caliente,Tierra Caliente 1,GUERRERO,ACAPULCO DE JUAREZ,200300654,24/04/2020,Durante ABRIL recorre los pasillos de un Minisuper y gana dinero,130,Mercado La Laja Acapulco,,179904,LIBRE,30/03/2020,11:19:32,1151881,16.876866,-99.872788,200300654,24/04/2020,3
1,Libre,Tierra Caliente,Tierra Caliente 1,GUERRERO,ACAPULCO DE JUAREZ,200300654,24/04/2020,Durante ABRIL recorre los pasillos de un Minisuper y gana dinero,143,Colonia Libertad,,179891,LIBRE,30/03/2020,11:19:32,1151889,16.884691,-99.833864,200300654,24/04/2020,3
1,Libre,Tierra Caliente,Tierra Caliente 1,GUERRERO,ACAPULCO DE JUAREZ,200300654,24/04/2020,Durante ABRIL recorre los pasillos de un Minisuper y gana dinero,277,277 - Tienda Neto-Vallarta,,18708,LIBRE,30/03/2020,11:19:33,1151995,16.86213,-99.90194,200300654,24/04/2020,3
1,Libre,Tierra Caliente,Tierra Caliente 1,GUERRERO,ACAPULCO DE JUAREZ,200300654,24/04/2020,Durante ABRIL recorre los pasillos de un Minisuper y gana dinero,292,SP LA POZA (292),,158356,LIBRE,30/03/2020,11:19:40,1152706,16.789232,-99.79032,200300654,24/04/2020,3
1,Libre,Tierra Caliente,Tierra Caliente 1,GUERRERO,ACAPULCO DE JUAREZ,200300654,24/04/2020,Durante ABRIL recorre los pasillos de un Minisuper y gana dinero,339,SP MERCADO BERNAL DIAZ (339),,166946,LIBRE,30/03/2020,11:19:41,1152734,16.863937,-99.89647,200300654,24/04/2020,3
1,Libre,Tierra Caliente,Tierra Caliente 1,GUERRERO,ACAPULCO DE JUAREZ,200300654,24/04/2020,Durante ABRIL recorre los pasillos de un Minisuper y gana dinero,3527,3527 - Tienda Neto-La Cima,,16173,LIBRE,30/03/2020,11:19:35,1152147,16.878216,-99.856104,200300654,24/04/2020,3
1,Libre,Tierra Caliente,Tierra Caliente 1,GUERRERO,ACAPULCO DE JUAREZ,200300654,24/04/2020,Durante ABRIL recorre los pasillos de un Minisuper y gana dinero,3529,3529 - Pie de la Cuesta 2,,26870,LIBRE,30/03/2020,11:19:35,1152148,16.89807,-99.962166,200300654,24/04/2020,3
1,Libre,Tierra Caliente,Tierra Caliente 1,GUERRERO,ACAPULCO DE JUAREZ,200300654,24/04/2020,Durante ABRIL recorre los pasillos de un Minisuper y gana dinero,3530,3530 - Tienda Neto-El treinta Independencia,,16175,LIBRE,30/03/2020,11:19:35,1152149,16.996633,-99.781188,200300654,24/04/2020,3
1,Libre,Tierra Caliente,Tierra Caliente 1,GUERRERO,ACAPULCO DE JUAREZ,200300654,24/04/2020,Durante ABRIL recorre los pasillos de un Minisuper y gana dinero,3545,3545 - Tienda Neto-Chiautla,,16194,LIBRE,30/03/2020,11:19:35,1152161,16.897049,-99.83014,200300654,24/04/2020,3
1,Libre,Tierra Caliente,Tierra Caliente 1,GUERRERO,ACAPULCO DE JUAREZ,200300654,24/04/2020,Durante ABRIL recorre los pasillos de un Minisuper y gana dinero,3550,3550 - Tienda Neto-La Tolva,,16192,LIBRE,30/03/2020,11:19:35,1152166,16.883694,-99.84381,200300654,24/04/2020,3
1,Libre,Tierra Caliente,Tierra Caliente 1,GUERRERO,ACAPULCO DE JUAREZ,200300654,24/04/2020,Durante ABRIL recorre los pasillos de un Minisuper y gana dinero,3551,3551 - Tienda Neto-Plaza Sol,,16193,LIBRE,30/03/2020,11:19:35,1152167,16.851498,-99.90619,200300654,24/04/2020,3
1,Libre,Tierra Caliente,Tierra Caliente 1,GUERRERO,ACAPULCO DE JUAREZ,200300654,24/04/2020,Durante ABRIL recorre los pasillos de un Minisuper y gana dinero,358,SP REAL DEL PALMAR (358),,170932,LIBRE,30/03/2020,11:19:41,1152742,16.834545,-99.80681,200300654,24/04/2020,3
1,Libre,Tierra Caliente,Tierra Caliente 1,GUERRERO,ACAPULCO DE JUAREZ,200300654,24/04/2020,Durante ABRIL recorre los pasillos de un Minisuper y gana dinero,381,Ciudad San Agustin_Neto,,173535,LIBRE,30/03/2020,11:19:36,1152233,16.92958,-99.828143,200300654,24/04/2020,3
1,Libre,Tierra Caliente,Tierra Caliente 1,GUERRERO,ACAPULCO DE JUAREZ,200300654,24/04/2020,Durante ABRIL recorre los pasillos de un Minisuper y gana dinero,385,Neto El Pedregoso,,173112,LIBRE,30/03/2020,11:19:36,1152260,16.919283,-99.96142,200300654,24/04/2020,3
1,Libre,Tierra Caliente,Tierra Caliente 1,GUERRERO,ACAPULCO DE JUAREZ,200300654,24/04/2020,Durante ABRIL recorre los pasillos de un Minisuper y gana dinero,423,Barrios Historicos,,179048,LIBRE,30/03/2020,11:19:37,1152315,16.851689,-99.907307,200300654,24/04/2020,3
1,Libre,Tierra Caliente,Tierra Caliente 1,GUERRERO,ACAPULCO DE JUAREZ,200300654,24/04/2020,Durante ABRIL recorre los pasillos de un Minisuper y gana dinero,437,Zapata Imss,,176028,LIBRE,30/03/2020,11:19:37,1152328,16.896328,-99.83295,200300654,24/04/2020,3
1,Libre,Tierra Caliente,Tierra Caliente 1,GUERRERO,ACAPULCO DE JUAREZ,200300654,24/04/2020,Durante ABRIL recorre los pasillos de un Minisuper y gana dinero,4536,4536 - Tienda Neto-La Laja,,11671,LIBRE,30/03/2020,11:19:37,1152367,16.875063,-99.875374,200300654,24/04/2020,3
1,Libre,Tierra Caliente,Tierra Caliente 1,GUERRERO,ACAPULCO DE JUAREZ,200300654,24/04/2020,Durante ABRIL recorre los pasillos de un Minisuper y gana dinero,466,SP ZAPATA MERCADO (466),,157305,LIBRE,30/03/2020,11:19:41,1152759,16.901396,-99.835686,200300654,24/04/2020,3
1,Libre,Tierra Caliente,Tierra Caliente 1,GUERRERO,ACAPULCO DE JUAREZ,200300654,24/04/2020,Durante ABRIL recorre los pasillos de un Minisuper y gana dinero,484,SP REAL HACIENDA (484),,158286,LIBRE,30/03/2020,11:19:41,1152773,16.925291,-99.81627,200300654,24/04/2020,3
1,Libre,Tierra Caliente,Tierra Caliente 1,GUERRERO,ACAPULCO DE JUAREZ,200300654,24/04/2020,Durante ABRIL recorre los pasillos de un Minisuper y gana dinero,7217,7217 - Heroes Acapulco,,23150,LIBRE,30/03/2020,11:19:38,1152446,16.864302,-99.89328,200300654,24/04/2020,3
1,Libre,Tierra Caliente,Tierra Caliente 1,GUERRERO,ACAPULCO DE JUAREZ,200300654,24/04/2020,Durante ABRIL recorre los pasillos de un Minisuper y gana dinero,8921,8921 - Caleta,,18304,LIBRE,30/03/2020,11:19:39,1152518,16.846884,-99.90894,200300654,24/04/2020,3
1,Libre,Tierra Caliente,Tierra Caliente 1,GUERRERO,ACAPULCO DE JUAREZ,200300654,24/04/2020,Durante ABRIL recorre los pasillos de un Minisuper y gana dinero,8928,8928- Tienda Neto La Union,,33882,LIBRE,30/03/2020,11:19:39,1152525,17.983082,-101.80726,200300654,24/04/2020,3
1,Libre,Tierra Caliente,Tierra Caliente 1,GUERRERO,ACAPULCO DE JUAREZ,200300654,24/04/2020,Durante ABRIL recorre los pasillos de un Minisuper y gana dinero,8929,8929 - Tienda Neto Cuauhtemoc Mercado,,31692,LIBRE,30/03/2020,11:19:39,1152526,16.857704,-99.899864,200300654,24/04/2020,3
1,Libre,Tierra Caliente,Tierra Caliente 1,GUERRERO,ACAPULCO DE JUAREZ,200300654,24/04/2020,Durante ABRIL recorre los pasillos de un Minisuper y gana dinero,8956,8956 - Tiendas Neto - La Zapata,,59596,LIBRE,30/03/2020,11:19:39,1152547,16.89883,-99.831436,200300654,24/04/2020,3
1,Libre,Tierra Caliente,Tierra Caliente 1,GUERRERO,ACAPULCO DE JUAREZ,200300654,24/04/2020,Durante ABRIL recorre los pasillos de un Minisuper y gana dinero,8969,8969 - Tienda Neto Xaltianguis,,63279,LIBRE,30/03/2020,11:19:39,1152560,17.0996,-99.71421,200300654,24/04/2020,3
1,Libre,Tierra Caliente,Tierra Caliente 1,GUERRERO,ACAPULCO DE JUAREZ,200300654,24/04/2020,Durante ABRIL recorre los pasillos de un Minisuper y gana dinero,8971,8971 - Tienda Neto IMSS Centro,,63280,LIBRE,30/03/2020,11:19:39,1152563,16.854172,-99.903854,200300654,24/04/2020,3
1,Libre,Tierra Caliente,Tierra Caliente 1,GUERRERO,ACAPULCO DE JUAREZ,200300654,24/04/2020,Durante ABRIL recorre los pasillos de un Minisuper y gana dinero,9050,TIENA NETO HORNOS,,78738,LIBRE,30/03/2020,11:19:39,1152598,16.85739,-99.89953,200300654,24/04/2020,3
1,Libre,Tierra Caliente,Tierra Caliente 1,GUERRERO,ACAPULCO DE JUAREZ,200300654,24/04/2020,Durante ABRIL recorre los pasillos de un Minisuper y gana dinero,9055,TIENDA NETO LAS CRUCES,,78740,LIBRE,30/03/2020,11:19:39,1152602,16.887604,-99.83764,200300654,24/04/2020,3
1,Libre,Tierra Caliente,Tierra Caliente 1,GUERRERO,ACAPULCO DE JUAREZ,200300654,24/04/2020,Durante ABRIL recorre los pasillos de un Minisuper y gana dinero,9056,TIENDA NETO CARRETERA 30,,78735,LIBRE,30/03/2020,11:19:39,1152603,16.99663,-99.78354,200300654,24/04/2020,3
1,Libre,Tierra Caliente,Tierra Caliente 1,GUERRERO,ACAPULCO DE JUAREZ,200300654,24/04/2020,Durante ABRIL recorre los pasillos de un Minisuper y gana dinero,9057,TIENDA NETO TRES PALOS,,78741,LIBRE,30/03/2020,11:19:39,1152604,16.832088,-99.77802,200300654,24/04/2020,3
1,Libre,Tierra Caliente,Tierra Caliente 1,GUERRERO,ACAPULCO DE JUAREZ,200300654,24/04/2020,Durante ABRIL recorre los pasillos de un Minisuper y gana dinero,9092,9092 - Tienda Neto - Central De Abastos,,92367,LIBRE,30/03/2020,11:19:40,1152638,16.906235,-99.82559,200300654,24/04/2020,3
1,Libre,Tierra Caliente,Tierra Caliente 1,GUERRERO,ACAPULCO DE JUAREZ,200300654,24/04/2020,Durante ABRIL recorre los pasillos de un Minisuper y gana dinero,975,975 - Tienda Neto-Renacimiento,,18339,LIBRE,30/03/2020,11:19:40,1152674,16.891974,-99.824554,200300654,24/04/2020,3
1,Libre,Tierra Caliente,Tierra Caliente 1,GUERRERO,ACAPULCO DE JUAREZ,200300654,24/04/2020,Durante ABRIL recorre los pasillos de un Minisuper y gana dinero,977,977 - Tienda Neto-Pie De La Cuesta,,12173,LIBRE,30/03/2020,11:19:40,1152676,16.883902,-99.951706,200300654,24/04/2020,3
1,Libre,Tierra Caliente,Tierra Caliente 1,GUERRERO,ACAPULCO DE JUAREZ,200300661,24/04/2020,En abril descubre cuánto vale tu prenda de oro,5325,BA EKT ACAPULCO PIE DE LA CUESTA (5325),,119284,LIBRE,31/03/2020,12:56:49,1153446,16.881349,-99.948248,200300661,24/04/2020,2
1,Libre,Tierra Caliente,Tierra Caliente 1,GUERRERO,ACAPULCO DE JUAREZ,200300661,24/04/2020,En abril descubre cuánto vale tu prenda de oro,5383,BA PRESTA PRENDA ACAPULCO LA CIMA (5383),,119489,LIBRE,31/03/2020,12:57:51,1153895,16.878976,-99.856155,200300661,24/04/2020,2
2,Libre,Tierra Caliente,Tierra Caliente 1,GUERRERO,ACAPULCO DE JUAREZ,-,-,En Abril Upaxer te regala gasolina 2020,430,E07137_BP Acapulco Diamante,,158626,LIBRE,31/03/2020,17:52:56,1154725,16.791719,-99.804206,-,-,2
1,Libre,Tierra Caliente,Tierra Caliente 1,GUERRERO,ARCELIA,200100125,05/04/2020,Haz un trámite en la caja del banco y gana dinero_1,3959,BA PRESTA PRENDA GUERRERO ARCELIA,,68900,LIBRE,,,1152830,18.315173,-100.283549,200100125,05/04/2020,3
1,Libre,Tierra Caliente,Tierra Caliente 1,GUERRERO,ATLIXTAC,200300654,24/04/2020,Durante ABRIL recorre los pasillos de un Minisuper y gana dinero,453,Atlixtac,,179893,LIBRE,30/03/2020,11:19:37,1152365,17.564803,-98.935095,200300654,24/04/2020,3
1,Libre,Tierra Caliente,Tierra Caliente 1,GUERRERO,ATOYAC DE ALVAREZ,200300654,24/04/2020,Durante ABRIL recorre los pasillos de un Minisuper y gana dinero,1934,1934 - Tienda Neto-Atoyac De Alvarez,,11466,LIBRE,30/03/2020,11:19:33,1151946,17.211666,-100.43458,200300654,24/04/2020,3
1,Libre,Tierra Caliente,Tierra Caliente 1,GUERRERO,ATOYAC DE ALVAREZ,200300654,24/04/2020,Durante ABRIL recorre los pasillos de un Minisuper y gana dinero,407,Atoyac Zocalo,,174267,LIBRE,30/03/2020,11:19:36,1152299,17.212433,-100.432594,200300654,24/04/2020,3
1,Libre,Tierra Caliente,Tierra Caliente 1,GUERRERO,ATOYAC DE ALVAREZ,200300661,24/04/2020,En abril descubre cuánto vale tu prenda de oro,5920,BA PRESTA PRENDA ATOYAC DE ALVAREZ (5920),,118334,LIBRE,31/03/2020,12:57:51,1153938,17.210708,-100.435054,200300661,24/04/2020,2
1,Libre,Tierra Caliente,Tierra Caliente 1,GUERRERO,AYUTLA DE LOS LIBRES,200300654,24/04/2020,Durante ABRIL recorre los pasillos de un Minisuper y gana dinero,2851,2851 - Tienda Neto-Ayutla,,11470,LIBRE,30/03/2020,11:19:34,1152024,16.966389,-99.09991,200300654,24/04/2020,3
1,Libre,Tierra Caliente,Tierra Caliente 1,GUERRERO,AYUTLA DE LOS LIBRES,200300654,24/04/2020,Durante ABRIL recorre los pasillos de un Minisuper y gana dinero,330,SP AYUTLA MERCADO NUEVO (330),,166943,LIBRE,30/03/2020,11:19:41,1152728,16.95914,-99.09858,200300654,24/04/2020,3
1,Libre,Tierra Caliente,Tierra Caliente 1,GUERRERO,AYUTLA DE LOS LIBRES,200300654,24/04/2020,Durante ABRIL recorre los pasillos de un Minisuper y gana dinero,9063,Tienda Neto - Ayutla Mercado Oeste,,79434,LIBRE,30/03/2020,11:19:39,1152608,16.963972,-99.098625,200300654,24/04/2020,3
1,Libre,Tierra Caliente,Tierra Caliente 1,GUERRERO,BENITO JUAREZ,200300654,24/04/2020,Durante ABRIL recorre los pasillos de un Minisuper y gana dinero,0202,Neto-San Jeronimo Crucero,,181594,LIBRE,30/03/2020,11:19:31,1151799,17.142586,-100.467233,200300654,24/04/2020,3
1,Libre,Tierra Caliente,Tierra Caliente 1,GUERRERO,CHILPANCINGO DE LOS BRAVO,200300654,24/04/2020,Durante ABRIL recorre los pasillos de un Minisuper y gana dinero,176,Palo Blanco,,179918,LIBRE,30/03/2020,11:19:33,1151930,17.404389,-99.467254,200300654,24/04/2020,3
2,Libre,Tierra Caliente,Tierra Caliente 1,GUERRERO,CHILPANCINGO DE LOS BRAVO,-,-,En Abril Upaxer te regala gasolina 2020,431,E05539_BP Chilpancingo Centro,,158627,LIBRE,31/03/2020,17:52:56,1154726,17.54226,-99.50144,-,-,2
1,Libre,Tierra Caliente,Tierra Caliente 1,GUERRERO,COPALA,200300654,24/04/2020,Durante ABRIL recorre los pasillos de un Minisuper y gana dinero,1037,SP COPALA (1037),,157690,LIBRE,30/03/2020,11:19:40,1152686,16.607838,-98.97653,200300654,24/04/2020,3
1,Libre,Tierra Caliente,Tierra Caliente 1,GUERRERO,COYUCA DE BENITEZ,200300654,24/04/2020,Durante ABRIL recorre los pasillos de un Minisuper y gana dinero,326,SP BAJOS DEL EJIDO (326),,166942,LIBRE,30/03/2020,11:19:41,1152726,16.96219,-99.97259,200300654,24/04/2020,3
1,Libre,Tierra Caliente,Tierra Caliente 1,GUERRERO,COYUCA DE BENITEZ,200300654,24/04/2020,Durante ABRIL recorre los pasillos de un Minisuper y gana dinero,4875,4875 - Tienda Neto-Hermenegildo Galeana (Coyuca),,12004,LIBRE,30/03/2020,11:19:37,1152383,17.007719,-100.088873,200300654,24/04/2020,3
1,Libre,Tierra Caliente,Tierra Caliente 1,GUERRERO,COYUCA DE BENITEZ,200300654,24/04/2020,Durante ABRIL recorre los pasillos de un Minisuper y gana dinero,5966,5966 - Tienda Neto-Coyuca,,12003,LIBRE,30/03/2020,11:19:38,1152417,17.007377,-100.086081,200300654,24/04/2020,3
1,Libre,Tierra Caliente,Tierra Caliente 1,GUERRERO,COYUCA DE BENITEZ,200300661,24/04/2020,En abril descubre cuánto vale tu prenda de oro,4849,BA PRESTA PRENDA COYUCA (4849),,118379,LIBRE,31/03/2020,12:57:51,1153872,17.007067,-100.088529,200300661,24/04/2020,2
1,Libre,Tierra Caliente,Tierra Caliente 1,GUERRERO,CUAJINICUILAPA,200300654,24/04/2020,Durante ABRIL recorre los pasillos de un Minisuper y gana dinero,4537,4537 - Tienda Neto-Cuajinicuilapa,,12008,LIBRE,30/03/2020,11:19:37,1152368,16.472208,-98.41495,200300654,24/04/2020,3
1,Libre,Tierra Caliente,Tierra Caliente 1,GUERRERO,CUAJINICUILAPA,200300654,24/04/2020,Durante ABRIL recorre los pasillos de un Minisuper y gana dinero,973,973 - Tienda Neto-Manuel Zarate (Cuajinicuilapa),,12007,LIBRE,30/03/2020,11:19:40,1152673,16.47237,-98.41628,200300654,24/04/2020,3
1,Libre,Tierra Caliente,Tierra Caliente 1,GUERRERO,FLORENCIO VILLARREAL,200300654,24/04/2020,Durante ABRIL recorre los pasillos de un Minisuper y gana dinero,486,SP CRUZ GRANDE AYUNTAMIENTO (486),,158360,LIBRE,30/03/2020,11:19:41,1152775,16.724373,-99.123886,200300654,24/04/2020,3
1,Libre,Tierra Caliente,Tierra Caliente 1,GUERRERO,FLORENCIO VILLARREAL,200300654,24/04/2020,Durante ABRIL recorre los pasillos de un Minisuper y gana dinero,996,996 - Tienda Neto-Cruz Grande 2,,12005,LIBRE,30/03/2020,11:19:40,1152681,16.718855,-99.12374,200300654,24/04/2020,3
1,Libre,Tierra Caliente,Tierra Caliente 1,GUERRERO,GENERAL HELIODORO CASTILLO,200300654,24/04/2020,Durante ABRIL recorre los pasillos de un Minisuper y gana dinero,8973,SP TLACOTEPEC CUAUHTEMOC (8973),,123148,LIBRE,30/03/2020,11:19:41,1152778,17.78966,-99.978874,200300654,24/04/2020,3
1,Libre,Tierra Caliente,Tierra Caliente 1,GUERRERO,JOSE AZUETA,200300654,24/04/2020,Durante ABRIL recorre los pasillos de un Minisuper y gana dinero,0195,Neto-Los Amuzgos Zihuatanejo,,181592,LIBRE,30/03/2020,11:19:31,1151797,17.646504,-101.545483,200300654,24/04/2020,3
1,Libre,Tierra Caliente,Tierra Caliente 1,GUERRERO,JOSE AZUETA,200300654,24/04/2020,Durante ABRIL recorre los pasillos de un Minisuper y gana dinero,1018,1018 - Tienda Neto  Zihuatanejo Centro,,107559,LIBRE,30/03/2020,11:19:32,1151805,17.6438,-101.557799,200300654,24/04/2020,3
1,Libre,Tierra Caliente,Tierra Caliente 1,GUERRERO,JOSE AZUETA,200300654,24/04/2020,Durante ABRIL recorre los pasillos de un Minisuper y gana dinero,129,Pantla Zihuatanejo,,179903,LIBRE,30/03/2020,11:19:32,1151880,17.739342,-101.635329,200300654,24/04/2020,3
1,Libre,Tierra Caliente,Tierra Caliente 1,GUERRERO,JOSE AZUETA,200300654,24/04/2020,Durante ABRIL recorre los pasillos de un Minisuper y gana dinero,147,Jose Azueta,,179908,LIBRE,30/03/2020,11:19:32,1151895,18.074952,-95.705973,200300654,24/04/2020,3
1,Libre,Tierra Caliente,Tierra Caliente 1,GUERRERO,JOSE AZUETA,200300654,24/04/2020,Durante ABRIL recorre los pasillos de un Minisuper y gana dinero,148,La Correa Zocalo Zihuatanejo,,180836,LIBRE,30/03/2020,11:19:32,1151897,17.648982,-101.526711,200300654,24/04/2020,3
1,Libre,Tierra Caliente,Tierra Caliente 1,GUERRERO,JOSE AZUETA,200300654,24/04/2020,Durante ABRIL recorre los pasillos de un Minisuper y gana dinero,299,SP LA PUERTA (299),,170929,LIBRE,30/03/2020,11:19:40,1152711,17.668884,-101.58565,200300654,24/04/2020,3
1,Libre,Tierra Caliente,Tierra Caliente 1,GUERRERO,JOSE AZUETA,200300654,24/04/2020,Durante ABRIL recorre los pasillos de un Minisuper y gana dinero,7216,7216 - Zihuatanejo,,17847,LIBRE,30/03/2020,11:19:38,1152445,17.64136,-101.55689,200300654,24/04/2020,3
1,Libre,Tierra Caliente,Tierra Caliente 1,GUERRERO,JOSE AZUETA,200300654,24/04/2020,Durante ABRIL recorre los pasillos de un Minisuper y gana dinero,7242,7242 - Tienda Neto-Zihuatanejo Cocos,,20643,LIBRE,30/03/2020,11:19:38,1152469,17.642124,-101.553635,200300654,24/04/2020,3
1,Libre,Tierra Caliente,Tierra Caliente 1,GUERRERO,JOSE AZUETA,200300654,24/04/2020,Durante ABRIL recorre los pasillos de un Minisuper y gana dinero,9076,9076 - Tienda Neto   Coacoyul ,,79866,LIBRE,30/03/2020,11:19:40,1152622,17.639347,-101.48235,200300654,24/04/2020,3
1,Libre,Tierra Caliente,Tierra Caliente 1,GUERRERO,JOSE AZUETA,200300661,24/04/2020,En abril descubre cuánto vale tu prenda de oro,2687,BA PRESTA PRENDA ZIHUATANEJO 2 (2687),,118311,LIBRE,31/03/2020,12:57:51,1153800,17.644222,-101.556363,200300661,24/04/2020,2
1,Libre,Tierra Caliente,Tierra Caliente 1,GUERRERO,JOSE AZUETA,200300661,24/04/2020,En abril descubre cuánto vale tu prenda de oro,3706,BA EKT ZIHUATANEJO 1 (3706),,119289,LIBRE,31/03/2020,12:56:49,1153363,17.644311,-101.557006,200300661,24/04/2020,2
1,Libre,Tierra Caliente,Tierra Caliente 1,GUERRERO,MARQUELIA,200300654,24/04/2020,Durante ABRIL recorre los pasillos de un Minisuper y gana dinero,438,Marquelia Crucero,,174292,LIBRE,30/03/2020,11:19:37,1152329,16.582994,-98.81641,200300654,24/04/2020,3
1,Libre,Tierra Caliente,Tierra Caliente 1,GUERRERO,MARQUELIA,200300654,24/04/2020,Durante ABRIL recorre los pasillos de un Minisuper y gana dinero,4540,4540 - Tienda Neto-Marquelia,,12142,LIBRE,30/03/2020,11:19:37,1152371,16.582289,-98.814246,200300654,24/04/2020,3
1,Libre,Tierra Caliente,Tierra Caliente 1,GUERRERO,MOCHITLAN,200300654,24/04/2020,Durante ABRIL recorre los pasillos de un Minisuper y gana dinero,9020,Tienda Neto Mochitlan,,63743,LIBRE,30/03/2020,11:19:39,1152575,17.472822,-99.37138,200300654,24/04/2020,3
1,Libre,Tierra Caliente,Tierra Caliente 1,GUERRERO,OLINALA,200300654,24/04/2020,Durante ABRIL recorre los pasillos de un Minisuper y gana dinero,9088,Olinala,,82363,LIBRE,30/03/2020,11:19:40,1152633,17.777401,-98.74128,200300654,24/04/2020,3
1,Libre,Tierra Caliente,Tierra Caliente 1,GUERRERO,PETATLAN,200300654,24/04/2020,Durante ABRIL recorre los pasillos de un Minisuper y gana dinero,154,Petatlan Crucero,,181586,LIBRE,30/03/2020,11:19:32,1151902,17.545168,-101.27754,200300654,24/04/2020,3
1,Libre,Tierra Caliente,Tierra Caliente 1,GUERRERO,PETATLAN,200300654,24/04/2020,Durante ABRIL recorre los pasillos de un Minisuper y gana dinero,3558,3558 - Tienda Neto-Colegio Militar,,16202,LIBRE,30/03/2020,11:19:35,1152174,17.537127,-101.27557,200300654,24/04/2020,3
1,Libre,Tierra Caliente,Tierra Caliente 1,GUERRERO,PETATLAN,200300654,24/04/2020,Durante ABRIL recorre los pasillos de un Minisuper y gana dinero,382,Neto Petatlan Principal,,173111,LIBRE,30/03/2020,11:19:36,1152242,17.536322,-101.27142,200300654,24/04/2020,3
1,Libre,Tierra Caliente,Tierra Caliente 1,GUERRERO,PETATLAN,200300654,24/04/2020,Durante ABRIL recorre los pasillos de un Minisuper y gana dinero,410,San Jeronimito_Neto,,173544,LIBRE,30/03/2020,11:19:37,1152302,17.567001,-101.344705,200300654,24/04/2020,3
1,Libre,Tierra Caliente,Tierra Caliente 1,GUERRERO,PETATLAN,200300654,24/04/2020,Durante ABRIL recorre los pasillos de un Minisuper y gana dinero,4535,4535 - Tienda Neto-Petatlan,,12172,LIBRE,30/03/2020,11:19:37,1152366,17.538872,-101.274613,200300654,24/04/2020,3
1,Libre,Tierra Caliente,Tierra Caliente 1,GUERRERO,QUECHULTENANGO,200300654,24/04/2020,Durante ABRIL recorre los pasillos de un Minisuper y gana dinero,171,Colotlipa,,179915,LIBRE,30/03/2020,11:19:33,1151927,17.413979,-99.16616,200300654,24/04/2020,3
1,Libre,Tierra Caliente,Tierra Caliente 1,GUERRERO,QUECHULTENANGO,200300654,24/04/2020,Durante ABRIL recorre los pasillos de un Minisuper y gana dinero,2939,2939 - Tienda Neto-Quechultenango,,18335,LIBRE,30/03/2020,11:19:34,1152059,17.414932,-99.24096,200300654,24/04/2020,3
1,Libre,Tierra Caliente,Tierra Caliente 1,GUERRERO,SAN LUIS ACATLAN,200300654,24/04/2020,Durante ABRIL recorre los pasillos de un Minisuper y gana dinero,1011,1011 - Tienda Neto-San Luis Acatlan,,18515,LIBRE,30/03/2020,11:19:32,1151802,16.810966,-98.73306,200300654,24/04/2020,3
1,Libre,Tierra Caliente,Tierra Caliente 1,GUERRERO,SAN LUIS ACATLAN,200300654,24/04/2020,Durante ABRIL recorre los pasillos de un Minisuper y gana dinero,1013,1013 - Tienda Neto-Chichihualco,,11490,LIBRE,30/03/2020,11:19:32,1151803,17.658648,-99.677025,200300654,24/04/2020,3
1,Libre,Tierra Caliente,Tierra Caliente 1,GUERRERO,SAN LUIS ACATLAN,200300654,24/04/2020,Durante ABRIL recorre los pasillos de un Minisuper y gana dinero,388,Hidalgo San Luis Acatlan_Neto,,173536,LIBRE,30/03/2020,11:19:36,1152265,16.8062,-98.73653,200300654,24/04/2020,3
1,Libre,Tierra Caliente,Tierra Caliente 1,GUERRERO,SAN MARCOS,200300654,24/04/2020,Durante ABRIL recorre los pasillos de un Minisuper y gana dinero,103,Las Vigas Mercado,,179062,LIBRE,30/03/2020,11:19:32,1151814,16.760645,-99.23099,200300654,24/04/2020,3
1,Libre,Tierra Caliente,Tierra Caliente 1,GUERRERO,SAN MARCOS,200300654,24/04/2020,Durante ABRIL recorre los pasillos de un Minisuper y gana dinero,305,Las Mesas_Neto,,173525,LIBRE,30/03/2020,11:19:34,1152099,17.007286,-99.457432,200300654,24/04/2020,3
1,Libre,Tierra Caliente,Tierra Caliente 1,GUERRERO,SAN MARCOS,200300654,24/04/2020,Durante ABRIL recorre los pasillos de un Minisuper y gana dinero,3547,3547 - Tienda Neto-San Marcos Arcos,,16189,LIBRE,30/03/2020,11:19:35,1152162,16.793571,-99.38966,200300654,24/04/2020,3
1,Libre,Tierra Caliente,Tierra Caliente 1,GUERRERO,SAN MARCOS,200300654,24/04/2020,Durante ABRIL recorre los pasillos de un Minisuper y gana dinero,4539,4539 - Tienda Neto-San Marcos,,18362,LIBRE,30/03/2020,11:19:37,1152369,16.79495,-99.388466,200300654,24/04/2020,3
1,Libre,Tierra Caliente,Tierra Caliente 1,GUERRERO,TAXCO DE ALARCON,200300661,24/04/2020,En abril descubre cuánto vale tu prenda de oro,2672,BA PRESTA PRENDA TAXCO GUERREO (2672),,118305,LIBRE,31/03/2020,12:57:51,1153793,18.558285,-99.59891,200300661,24/04/2020,2
1,Libre,Tierra Caliente,Tierra Caliente 1,GUERRERO,TECOANAPA,200300654,24/04/2020,Durante ABRIL recorre los pasillos de un Minisuper y gana dinero,1038,SP TECOANAPA (1038),,166949,LIBRE,30/03/2020,11:19:40,1152687,16.98835,-99.26007,200300654,24/04/2020,3
1,Libre,Tierra Caliente,Tierra Caliente 1,GUERRERO,TECPAN DE GALEANA,200300654,24/04/2020,Durante ABRIL recorre los pasillos de un Minisuper y gana dinero,2934,2934 - Tienda Neto-San Luis De La Loma,,18516,LIBRE,30/03/2020,11:19:34,1152054,17.270491,-100.891782,200300654,24/04/2020,3
1,Libre,Tierra Caliente,Tierra Caliente 1,GUERRERO,TECPAN DE GALEANA,200300654,24/04/2020,Durante ABRIL recorre los pasillos de un Minisuper y gana dinero,406,Papanoa Carretera,,174277,LIBRE,30/03/2020,11:19:36,1152298,17.323503,-101.041369,200300654,24/04/2020,3
1,Libre,Tierra Caliente,Tierra Caliente 1,GUERRERO,TECPAN DE GALEANA,200300661,24/04/2020,En abril descubre cuánto vale tu prenda de oro,4593,PRESTA PRENDA SAN LUIS LA LOMA (4593),,122551,LIBRE,31/03/2020,12:57:51,1153836,17.270445,-100.890879,200300661,24/04/2020,2
1,Libre,Tierra Caliente,Tierra Caliente 1,GUERRERO,TECPAN DE GALEANA,200300661,24/04/2020,En abril descubre cuánto vale tu prenda de oro,7236,BA MEGA TECPAN DE GALEANA (7236),,119290,LIBRE,31/03/2020,12:56:50,1153579,17.221693,-100.631696,200300661,24/04/2020,2
1,Libre,Tierra Caliente,Tierra Caliente 1,GUERRERO,TELOLOAPAN,200300661,24/04/2020,En abril descubre cuánto vale tu prenda de oro,5112,BA PRESTA PRENDA TELOLOAPAN (5112),,120243,LIBRE,31/03/2020,12:57:51,1153881,18.366561,-99.871224,200300661,24/04/2020,2
1,Libre,Tierra Caliente,Tierra Caliente 1,GUERRERO,TELOLOAPAN,200300661,24/04/2020,En abril descubre cuánto vale tu prenda de oro,7184,BA MEGA TELOLOAPAN (7184),,119255,LIBRE,31/03/2020,12:56:50,1153576,18.367811,-99.874566,200300661,24/04/2020,2
1,Libre,Tierra Caliente,Tierra Caliente 1,GUERRERO,TIXTLA DE GUERRERO,200300654,24/04/2020,Durante ABRIL recorre los pasillos de un Minisuper y gana dinero,8946,Tienda Neto Apango,,58556,LIBRE,30/03/2020,11:19:39,1152541,17.742191,-99.3287,200300654,24/04/2020,3
1,Libre,Tierra Caliente,Tierra Caliente 1,GUERRERO,TLAPA DE COMONFORT,200300661,24/04/2020,En abril descubre cuánto vale tu prenda de oro,417,DAZ TLAPA COMONFORT II,,181049,LIBRE,31/03/2020,12:58:22,1154050,17.542316,-98.58592,200300661,24/04/2020,2
1,Libre,Tierra Caliente,Tierra Caliente 1,GUERRERO,XOCHISTLAHUACA,200300654,24/04/2020,Durante ABRIL recorre los pasillos de un Minisuper y gana dinero,9082,Xochistlahuaca,,82361,LIBRE,30/03/2020,11:19:40,1152629,16.790014,-98.24288,200300654,24/04/2020,3
1,Libre,Centro Oriente,Centro Oriente 2,HIDALGO,ACAXOCHITLAN,200300654,24/04/2020,Durante ABRIL recorre los pasillos de un Minisuper y gana dinero,9069,9069 - Tienda Neto- Acaxochitlan,,78960,LIBRE,30/03/2020,11:19:40,1152614,20.158281,-98.2039,200300654,24/04/2020,3
2,Libre,Centro Oriente,Centro Oriente 2,HIDALGO,ACTOPAN,-,-,En Abril Upaxer te regala gasolina 2020,306,E09065_BP Actopan 2,,159289,LIBRE,31/03/2020,14:11:54,1154350,20.275522,-98.940629,-,-,2
2,Libre,Centro Oriente,Centro Oriente 2,HIDALGO,ACTOPAN,-,-,En Abril Upaxer te regala gasolina 2020,307,E05654_BP Actopan 6,,159290,LIBRE,31/03/2020,14:11:54,1154351,20.280216,-98.960846,-,-,2
2,Libre,Centro Oriente,Centro Oriente 2,HIDALGO,ATITALAQUIA,-,-,En Abril Upaxer te regala gasolina 2020,64,E10503_BP Atitalaquia,,159195,LIBRE,31/03/2020,14:11:56,1154553,20.049599,-99.24656,-,-,2
2,Libre,Centro Oriente,Centro Oriente 2,HIDALGO,ATOTONILCO DE TULA,-,-,En Abril Upaxer te regala gasolina 2020,299,E06479_BP Leji,,159288,LIBRE,31/03/2020,14:11:54,1154341,20.000773,-99.214817,-,-,2
2,Libre,Centro Oriente,Centro Oriente 2,HIDALGO,ATOTONILCO DE TULA,-,-,En Abril Upaxer te regala gasolina 2020,308,E12732_BP Tula,,159291,LIBRE,31/03/2020,14:11:54,1154352,20.000288,-99.24798,-,-,2
1,Libre,Centro Oriente,Centro Oriente 2,HIDALGO,FRANCISCO I. MADERO,200300654,24/04/2020,Durante ABRIL recorre los pasillos de un Minisuper y gana dinero,1148,1148 - Tienda Neto-Tepatepec,,18539,LIBRE,,,1154856,20.244532,-99.090237,200300654,24/04/2020,1
2,Libre,Centro Oriente,Centro Oriente 2,HIDALGO,HUASCA DE OCAMPO,-,-,En Abril Upaxer te regala gasolina 2020,514,EA0057_BP Petreos,,179103,LIBRE,31/03/2020,14:11:56,1154527,20.217378,-98.591384,-,-,2
1,Libre,Sur,Sur 3,HIDALGO,HUEJUTLA DE REYES,200300654,24/04/2020,Durante ABRIL recorre los pasillos de un Minisuper y gana dinero,1236,1236 - Tienda Neto-Huejutla,,11652,LIBRE,30/03/2020,11:19:32,1151871,21.14406,-98.41738,200300654,24/04/2020,3
1,Libre,Sur,Sur 3,HIDALGO,HUEJUTLA DE REYES,200300661,24/04/2020,En abril descubre cuánto vale tu prenda de oro,7728,BA MEGA HUEJUTLA (7728),,120885,LIBRE,31/03/2020,12:56:50,1153594,21.142324,-98.419174,200300661,24/04/2020,2
1,Libre,Centro Poniente,Centro Poniente 1,HIDALGO,HUICHAPAN,200300654,24/04/2020,Durante ABRIL recorre los pasillos de un Minisuper y gana dinero,387,Huichapan,,176019,LIBRE,30/03/2020,11:19:36,1152262,20.372046,-99.64841,200300654,24/04/2020,3
1,Libre,Centro Poniente,Centro Poniente 1,HIDALGO,HUICHAPAN,200300661,24/04/2020,En abril descubre cuánto vale tu prenda de oro,9471,BA MEGA HUICHAPAN (9471),,119902,LIBRE,31/03/2020,12:56:51,1153643,20.375177,-99.65525,200300661,24/04/2020,2
2,Libre,Centro Poniente,Centro Poniente 1,HIDALGO,HUICHAPAN,-,-,En Abril Upaxer te regala gasolina 2020,319,E04098_BP Huichapan,,159295,LIBRE,31/03/2020,14:11:54,1154360,20.303696,-99.74484,-,-,2
2,Libre,Centro Poniente,Centro Poniente 1,HIDALGO,HUICHAPAN,-,-,En Abril Upaxer te regala gasolina 2020,75,E00701_BP Huichapan II,,159199,LIBRE,31/03/2020,14:11:56,1154565,20.374159,-99.66222,-,-,2
1,Libre,Centro Oriente,Centro Oriente 2,HIDALGO,IXMIQUILPAN,200300654,24/04/2020,Durante ABRIL recorre los pasillos de un Minisuper y gana dinero,940,940 - Tienda Neto-Tasquillo,,18529,LIBRE,30/03/2020,11:19:40,1152662,20.551033,-99.31171,200300654,24/04/2020,3
1,Libre,Centro Oriente,Centro Oriente 2,HIDALGO,IXMIQUILPAN,200300661,24/04/2020,En abril descubre cuánto vale tu prenda de oro,5636,BA MEGA IXMIQUILPAN (5636),,118994,LIBRE,31/03/2020,12:56:50,1153468,20.484587,-99.219112,200300661,24/04/2020,2
1,Libre,Centro Oriente,Centro Oriente 2,HIDALGO,IXMIQUILPAN,200300661,24/04/2020,En abril descubre cuánto vale tu prenda de oro,9578,BA MEGA IXMIQUILPAN PLAZA CENTRO (9578),,119738,LIBRE,31/03/2020,12:56:51,1153677,20.471634,-99.20723,200300661,24/04/2020,2
2,Libre,Centro Oriente,Centro Oriente 2,HIDALGO,IXMIQUILPAN,-,-,En Abril Upaxer te regala gasolina 2020,76,E00680_BP Ixmiquilpan,,159200,LIBRE,31/03/2020,14:11:56,1154566,20.477687,-99.221306,-,-,2
2,Libre,Centro Oriente,Centro Oriente 2,HIDALGO,MINERAL DE LA REFORMA,-,-,En Abril Upaxer te regala gasolina 2020,513,E08978_BP Huasca,,179102,LIBRE,31/03/2020,14:11:56,1154526,20.066181,-98.6744,-,-,2
1,Libre,Centro Oriente,Centro Oriente 2,HIDALGO,MIXQUIAHUALA DE JUAREZ,200300654,24/04/2020,Durante ABRIL recorre los pasillos de un Minisuper y gana dinero,9070,Tienda Neto Mixquiahuala,,79498,LIBRE,30/03/2020,11:19:40,1152616,20.228981,-99.21553,200300654,24/04/2020,3
2,Libre,Centro Oriente,Centro Oriente 2,HIDALGO,SAN SALVADOR,-,-,En Abril Upaxer te regala gasolina 2020,309,E07373_BP Actopan 5,,159292,LIBRE,31/03/2020,14:11:54,1154353,20.253956,-98.99411,-,-,2
2,Libre,Centro Oriente,Centro Oriente 2,HIDALGO,SANTIAGO TULANTEPEC DE LUGO GUERRERO,-,-,En Abril Upaxer te regala gasolina 2020,508,E12142_BP Santiago,,179098,LIBRE,31/03/2020,14:11:55,1154521,20.05019,-98.35951,-,-,2
1,Libre,Centro Poniente,Centro Poniente 1,HIDALGO,TECOZAUTLA,200300654,24/04/2020,Durante ABRIL recorre los pasillos de un Minisuper y gana dinero,1053,SP TECOZAUTLA (1053),,157517,LIBRE,30/03/2020,11:19:40,1152696,20.535248,-99.634125,200300654,24/04/2020,3
2,Libre,Centro Oriente,Centro Oriente 2,HIDALGO,TIZAYUCA,-,-,En Abril Upaxer te regala gasolina 2020,67,E03981_BP Vía Pachuca,,159196,LIBRE,31/03/2020,14:11:56,1154556,19.8483,-98.94969,-,-,2
2,Libre,Centro Oriente,Centro Oriente 2,HIDALGO,TIZAYUCA,-,-,En Abril Upaxer te regala gasolina 2020,68,E07168_BP Tizayuca,,159197,LIBRE,31/03/2020,14:11:56,1154557,19.879804,-98.947654,-,-,2
2,Libre,Centro Oriente,Centro Oriente 2,HIDALGO,TIZAYUCA,-,-,En Abril Upaxer te regala gasolina 2020,98,E07555_BP Tizayuca II,,159209,LIBRE,31/03/2020,14:11:56,1154590,19.834482,-98.94162,-,-,2
1,Libre,Centro Poniente,Centro Poniente 1,HIDALGO,TULA DE ALLENDE,200300661,24/04/2020,En abril descubre cuánto vale tu prenda de oro,5396,BA EKT TULA CALZADA (5396),,119064,LIBRE,,,1154950,20.055283,-99.33805,200300661,24/04/2020,1
2,Libre,Centro Oriente,Centro Oriente 2,HIDALGO,TULANCINGO DE BRAVO,-,-,En Abril Upaxer te regala gasolina 2020,507,E11083_BP Bicentenario,,179097,LIBRE,31/03/2020,14:11:55,1154520,20.08388,-98.37562,-,-,2
2,Libre,Centro Oriente,Centro Oriente 2,HIDALGO,TULANCINGO DE BRAVO,-,-,En Abril Upaxer te regala gasolina 2020,516,E11082_BP Huapalcalli,,179923,LIBRE,31/03/2020,14:11:56,1154528,20.10055,-98.36898,-,-,2
2,Libre,Centro Oriente,Centro Oriente 2,HIDALGO,TULANCINGO DE BRAVO,-,-,En Abril Upaxer te regala gasolina 2020,518,E12550_BP Chapultepec,,179925,LIBRE,31/03/2020,14:11:56,1154530,20.0893,-98.3492,-,-,2
1,Libre,Centro Oriente,Centro Oriente 2,HIDALGO,ZACUALTIPAN DE ANGELES,200300654,24/04/2020,Durante ABRIL recorre los pasillos de un Minisuper y gana dinero,1254,1254 - Tienda Neto-Zacualtipan,,18723,LIBRE,30/03/2020,11:19:32,1151873,20.644035,-98.65435,200300654,24/04/2020,3
1,Libre,Centro Oriente,Centro Oriente 2,HIDALGO,ZACUALTIPAN DE ANGELES,200300661,24/04/2020,En abril descubre cuánto vale tu prenda de oro,2650,BA EKT ZACUALTIPAN HIDALGO (2650),,119198,LIBRE,31/03/2020,12:56:49,1153323,20.644129,-98.65348,200300661,24/04/2020,2
1,Libre,Centro Oriente,Centro Oriente 2,HIDALGO,ZIMAPAN,200300654,24/04/2020,Durante ABRIL recorre los pasillos de un Minisuper y gana dinero,9103,Tienda Neto Zimapan,,104850,LIBRE,30/03/2020,11:19:40,1152646,20.735712,-99.381355,200300654,24/04/2020,3
1,Libre,Centro Oriente,Centro Oriente 2,HIDALGO,ZIMAPAN,200300661,24/04/2020,En abril descubre cuánto vale tu prenda de oro,9835,DAZ HIDALGO ZIMAPAN (9835),,121238,LIBRE,31/03/2020,12:57:51,1153998,20.736184,-99.383148,200300661,24/04/2020,2
1,Libre,Occidente,Occidente 3,JALISCO,ATOTONILCO EL ALTO,200300661,24/04/2020,En abril descubre cuánto vale tu prenda de oro,2225,BA EKT JALISCO ATOTONILCO (2225),,118960,LIBRE,31/03/2020,12:56:49,1153296,20.548553,-102.509252,200300661,24/04/2020,2
1,Libre,Occidente,Occidente 3,JALISCO,BARCA LA,200300654,24/04/2020,Durante ABRIL recorre los pasillos de un Minisuper y gana dinero,3549,3549 - Tienda Neto-La Barca,,16186,LIBRE,30/03/2020,11:19:35,1152164,20.285772,-102.547347,200300654,24/04/2020,3
2,Libre,Occidente,Occidente 3,JALISCO,CHAPALA,-,-,En Abril Upaxer te regala gasolina 2020,407,E10270_BP Ajijic,,158616,LIBRE,31/03/2020,14:11:55,1154425,20.297392,-103.289657,-,-,2
2,Libre,Occidente,Occidente 3,JALISCO,CHAPALA,-,-,En Abril Upaxer te regala gasolina 2020,414,E05315_BP Chapala,,158620,LIBRE,31/03/2020,14:11:55,1154431,20.301153,-103.242732,-,-,2
1,Libre,Occidente,Occidente 3,JALISCO,COCULA,200300661,24/04/2020,En abril descubre cuánto vale tu prenda de oro,8302,DAZ COCULA,,70134,LIBRE,31/03/2020,12:58:22,1154067,20.36654,-103.822385,200300661,24/04/2020,2
2,Libre,Occidente,Occidente 3,JALISCO,GUADALAJARA,-,-,En Abril Upaxer te regala gasolina 2020,142,E04740_BP República,,158454,LIBRE,31/03/2020,14:11:53,1154180,20.671662,-103.305354,-,-,2
2,Libre,Occidente,Occidente 3,JALISCO,GUADALAJARA,-,-,En Abril Upaxer te regala gasolina 2020,155,E04903_BP La Paz,,158462,LIBRE,31/03/2020,14:11:53,1154193,20.670082,-103.35435,-,-,2
2,Libre,Occidente,Occidente 3,JALISCO,GUADALAJARA,-,-,En Abril Upaxer te regala gasolina 2020,168,E01542_BP Revolución,,158471,LIBRE,31/03/2020,14:11:53,1154207,20.656664,-103.31868,-,-,2
2,Libre,Occidente,Occidente 3,JALISCO,GUADALAJARA,-,-,En Abril Upaxer te regala gasolina 2020,264,EA0002_BP Circunvalación,,158524,LIBRE,31/03/2020,14:11:54,1154308,20.704391,-103.345153,-,-,2
2,Libre,Occidente,Occidente 3,JALISCO,GUADALAJARA,-,-,En Abril Upaxer te regala gasolina 2020,30,E06023_BP Bohemio,,158397,LIBRE,31/03/2020,14:11:54,1154343,20.707256,-103.324114,-,-,2
2,Libre,Occidente,Occidente 3,JALISCO,GUADALAJARA,-,-,En Abril Upaxer te regala gasolina 2020,311,E03008_BP Oblatos,,158553,LIBRE,31/03/2020,14:11:54,1154356,20.687994,-103.294171,-,-,2
2,Libre,Occidente,Occidente 3,JALISCO,GUADALAJARA,-,-,En Abril Upaxer te regala gasolina 2020,365,E03407_BP Nogalera,,158594,LIBRE,31/03/2020,14:11:55,1154395,20.628648,-103.334749,-,-,2
2,Libre,Occidente,Occidente 3,JALISCO,GUADALAJARA,-,-,En Abril Upaxer te regala gasolina 2020,406,E05023_BP Av. Hidalgo,,158615,LIBRE,31/03/2020,14:11:55,1154424,20.677019,-103.371042,-,-,2
2,Libre,Occidente,Occidente 3,JALISCO,GUADALAJARA,-,-,En Abril Upaxer te regala gasolina 2020,423,E08122_BP El Rastro,,158624,LIBRE,31/03/2020,17:45:48,1154683,20.628624,-103.34902,-,-,2
2,Libre,Occidente,Occidente 3,JALISCO,GUADALAJARA,-,-,En Abril Upaxer te regala gasolina 2020,529,E01543_BP La Bandera,,180846,LIBRE,31/03/2020,14:11:56,1154537,20.66227,-103.332924,-,-,2
2,Libre,Occidente,Occidente 3,JALISCO,IXTLAHUACAN DEL RIO,-,-,En Abril Upaxer te regala gasolina 2020,360,E01585_BP Ixtlahuacán,,158591,LIBRE,31/03/2020,14:11:54,1154390,20.858945,-103.250595,-,-,2
2,Libre,Occidente,Occidente 3,JALISCO,JOCOTEPEC,-,-,En Abril Upaxer te regala gasolina 2020,205,E01589_BP Joco,,158488,LIBRE,31/03/2020,14:11:53,1154247,20.277205,-103.445944,-,-,2
1,Libre,Occidente,Occidente 3,JALISCO,OCOTLAN,200300661,24/04/2020,En abril descubre cuánto vale tu prenda de oro,6444,PRESTA PRENDA OCOTLAN (6444),,122341,LIBRE,31/03/2020,12:57:51,1153955,20.348177,-102.774155,200300661,24/04/2020,2
2,Libre,Occidente,Occidente 3,JALISCO,OCOTLAN,-,-,En Abril Upaxer te regala gasolina 2020,323,E05984_BP Ocotlán,,158562,LIBRE,31/03/2020,14:11:54,1154363,20.34804,-102.76446,-,-,2
1,Libre,Occidente,Occidente 1,JALISCO,OJUELOS DE JALISCO,200300654,24/04/2020,Durante ABRIL recorre los pasillos de un Minisuper y gana dinero,2916,2916 - Tienda Neto-Ojuelos,,12159,LIBRE,30/03/2020,11:19:34,1152047,21.864967,-101.59381,200300654,24/04/2020,3
1,Libre,Occidente,Occidente 3,JALISCO,PUERTO VALLARTA,200300661,24/04/2020,En abril descubre cuánto vale tu prenda de oro,4701,BA PRESTA PRENDA VALLARTA AV MEXICO (4701),,118376,LIBRE,31/03/2020,12:57:51,1153855,20.616701,-105.231539,200300661,24/04/2020,2
1,Libre,Occidente,Occidente 3,JALISCO,PUERTO VALLARTA,200300661,24/04/2020,En abril descubre cuánto vale tu prenda de oro,6790,BA MEGA PTO VALLARTA PITIYAL (6790),,118907,LIBRE,31/03/2020,12:56:50,1153559,20.654662,-105.234493,200300661,24/04/2020,2
1,Libre,Occidente,Occidente 3,JALISCO,SALTO  EL,200300654,24/04/2020,Durante ABRIL recorre los pasillos de un Minisuper y gana dinero,6032,6032 - Tienda Neto-El Salto,,12017,LIBRE,30/03/2020,11:19:38,1152418,20.517338,-103.17986,200300654,24/04/2020,3
1,Libre,Occidente,Occidente 3,JALISCO,SALTO  EL,200300661,24/04/2020,En abril descubre cuánto vale tu prenda de oro,4221,BA EKT JALISCO EL SALTO CENTRO (4221),,120833,LIBRE,31/03/2020,12:56:49,1153386,20.5183,-103.178944,200300661,24/04/2020,2
1,Libre,Occidente,Occidente 1,JALISCO,SAN JUAN DE LOS LAGOS,200300661,24/04/2020,En abril descubre cuánto vale tu prenda de oro,7397,BA EKT SAN JUAN DE LOS LAGOS (7397),,119117,LIBRE,31/03/2020,12:56:50,1153584,21.251438,-102.32809,200300661,24/04/2020,2
2,Libre,Occidente,Occidente 1,JALISCO,SAN JUAN DE LOS LAGOS,-,-,En Abril Upaxer te regala gasolina 2020,394,E01727_BP San Juan de los Lagos,,158612,LIBRE,31/03/2020,14:11:55,1154416,21.254318,-102.326903,-,-,2
1,Libre,Occidente,Occidente 3,JALISCO,TALA,200300654,24/04/2020,Durante ABRIL recorre los pasillos de un Minisuper y gana dinero,4546,4546 - Tienda Neto-Tala,,18524,LIBRE,30/03/2020,11:19:37,1152373,20.649817,-103.701724,200300654,24/04/2020,3
1,Libre,Occidente,Occidente 2,JALISCO,TAMAZULA DE GORDIANO,200300661,24/04/2020,En abril descubre cuánto vale tu prenda de oro,6096,BA EKT JALISCO TAMAZULA DE G (6096),,120587,LIBRE,31/03/2020,12:56:50,1153512,19.677835,-103.252858,200300661,24/04/2020,2
1,Libre,Occidente,Occidente 2,JALISCO,TAPALPA,200300661,24/04/2020,En abril descubre cuánto vale tu prenda de oro,8506,DAZ TAPALPA (8506),,120338,LIBRE,31/03/2020,12:57:51,1153974,19.945081,-103.758374,200300661,24/04/2020,2
1,Libre,Occidente,Occidente 1,JALISCO,TEOCALTICHE,200300654,24/04/2020,Durante ABRIL recorre los pasillos de un Minisuper y gana dinero,311,Teocaltiche,,174275,LIBRE,30/03/2020,11:19:35,1152102,21.437775,-102.575141,200300654,24/04/2020,3
1,Libre,Occidente,Occidente 1,JALISCO,TEOCALTICHE,200300661,24/04/2020,En abril descubre cuánto vale tu prenda de oro,4171,BA EKT JALISCO TEOCALTICHE (4171),,120555,LIBRE,31/03/2020,12:56:49,1153380,21.438009,-102.575449,200300661,24/04/2020,2
1,Libre,Occidente,Occidente 1,JALISCO,TEPATITLAN DE MORELOS,200300661,24/04/2020,En abril descubre cuánto vale tu prenda de oro,4718,BA EKT TEPATITLAN 2 P DIAZ (4718),,118910,LIBRE,31/03/2020,12:56:49,1153412,20.814209,-102.759765,200300661,24/04/2020,2
2,Libre,Occidente,Occidente 1,JALISCO,TEPATITLAN DE MORELOS,-,-,En Abril Upaxer te regala gasolina 2020,373,E11715_BP Tepa,,158600,LIBRE,31/03/2020,14:11:55,1154403,20.812805,-102.752316,-,-,2
2,Libre,Occidente,Occidente 1,JALISCO,TEPATITLAN DE MORELOS,-,-,En Abril Upaxer te regala gasolina 2020,384,E08770_BP Carnicerito,,158607,LIBRE,31/03/2020,14:11:55,1154407,20.804962,-102.781571,-,-,2
1,Libre,Occidente,Occidente 3,JALISCO,TEQUILA,200300661,24/04/2020,En abril descubre cuánto vale tu prenda de oro,6079,BA MEGA JALISCO TEQUILA (6079),,120831,LIBRE,31/03/2020,12:56:50,1153506,20.885279,-103.834266,200300661,24/04/2020,2
2,Libre,Occidente,Occidente 3,JALISCO,TLAJOMULCO DE ZUÑIGA,-,-,En Abril Upaxer te regala gasolina 2020,154,E09021_BP Adolf Horn,,158461,LIBRE,31/03/2020,14:11:53,1154192,20.568172,-103.365817,-,-,2
2,Libre,Occidente,Occidente 3,JALISCO,TLAJOMULCO DE ZUÑIGA,-,-,En Abril Upaxer te regala gasolina 2020,169,E04877_BP Tlajomulco,,158472,LIBRE,31/03/2020,14:11:53,1154208,20.461874,-103.445551,-,-,2
2,Libre,Occidente,Occidente 3,JALISCO,TLAJOMULCO DE ZUÑIGA,-,-,En Abril Upaxer te regala gasolina 2020,316,E07477_BP El Tajo,,158558,LIBRE,31/03/2020,17:45:48,1154659,20.58483,-103.447201,-,-,2
2,Libre,Occidente,Occidente 3,JALISCO,TLAJOMULCO DE ZUÑIGA,-,-,En Abril Upaxer te regala gasolina 2020,325,E08721_BP San Agustín,,158564,LIBRE,31/03/2020,17:45:48,1154663,20.544147,-103.4722,-,-,2
2,Libre,Occidente,Occidente 3,JALISCO,TLAQUEPAQUE,-,-,En Abril Upaxer te regala gasolina 2020,140,E04271_BP Periférico Sur,,158453,LIBRE,31/03/2020,14:11:53,1154178,20.579014,-103.365162,-,-,2
2,Libre,Occidente,Occidente 3,JALISCO,TLAQUEPAQUE,-,-,En Abril Upaxer te regala gasolina 2020,23,E11748_BP Álamos,,158396,LIBRE,31/03/2020,14:11:54,1154274,20.627434,-103.32365,-,-,2
2,Libre,Occidente,Occidente 3,JALISCO,TLAQUEPAQUE,-,-,En Abril Upaxer te regala gasolina 2020,347,E07080_BP Patria Terminal,,158579,LIBRE,31/03/2020,17:45:48,1154670,20.624589,-103.286769,-,-,2
1,Libre,Occidente,Occidente 3,JALISCO,TONALA,200300654,24/04/2020,Durante ABRIL recorre los pasillos de un Minisuper y gana dinero,457,SP TONALA (457),,166225,LIBRE,30/03/2020,11:19:41,1152755,20.625748,-103.24209,200300654,24/04/2020,3
2,Libre,Occidente,Occidente 3,JALISCO,TONALA,-,-,En Abril Upaxer te regala gasolina 2020,217,E11927_BP Tonalá,,158492,LIBRE,31/03/2020,14:11:53,1154260,20.641433,-103.259336,-,-,2
2,Libre,Occidente,Occidente 3,JALISCO,TONALA,-,-,En Abril Upaxer te regala gasolina 2020,312,E04863_BP Jema,,158554,LIBRE,31/03/2020,14:11:54,1154357,20.641598,-103.277181,-,-,2
2,Libre,Occidente,Occidente 3,JALISCO,TONALA,-,-,En Abril Upaxer te regala gasolina 2020,356,E10384_BP Coyula,,158588,LIBRE,31/03/2020,17:45:48,1154671,20.668498,-103.234191,-,-,2
2,Libre,Occidente,Occidente 3,JALISCO,TOTOTLAN,-,-,En Abril Upaxer te regala gasolina 2020,389,E12481_BP 19 Hermanos,,158609,LIBRE,31/03/2020,14:11:55,1154411,20.5618,-102.742348,-,-,2
1,Libre,Occidente,Occidente 2,JALISCO,TUXPAN,200300661,24/04/2020,En abril descubre cuánto vale tu prenda de oro,5680,DAZ TUXPAN JALISCO (5680),,118052,LIBRE,31/03/2020,12:57:51,1153914,19.556968,-103.376345,200300661,24/04/2020,2
2,Libre,Occidente,Occidente 2,JALISCO,TUXPAN,-,-,En Abril Upaxer te regala gasolina 2020,524,E07733_BP Rio Tuxpan,,179930,LIBRE,31/03/2020,14:11:56,1154534,20.957698,-97.344557,-,-,2
1,Libre,Occidente,Occidente 3,JALISCO,UNION DE TULA,200300661,24/04/2020,En abril descubre cuánto vale tu prenda de oro,751,PRESTA PRENDA UNION DE TULA (751),,121908,LIBRE,31/03/2020,12:57:51,1153965,19.956643,-104.268539,200300661,24/04/2020,2
1,Libre,Occidente,Occidente 1,JALISCO,YAHUALICA DE GONZALEZ GALLO,200300654,24/04/2020,Durante ABRIL recorre los pasillos de un Minisuper y gana dinero,1469,1469 - Tienda Neto-Yahualica,,18720,LIBRE,30/03/2020,11:19:32,1151894,21.177544,-102.88572,200300654,24/04/2020,3
2,Libre,Occidente,Occidente 3,JALISCO,ZAPOPAN,-,-,En Abril Upaxer te regala gasolina 2020,117,E09291_BP Juan Palomar,,158444,LIBRE,31/03/2020,14:11:53,1154155,20.71879,-103.42508,-,-,2
2,Libre,Occidente,Occidente 3,JALISCO,ZAPOPAN,-,-,En Abril Upaxer te regala gasolina 2020,178,E09288_BP Periférico Poniente,,158478,LIBRE,31/03/2020,14:11:53,1154217,20.648128,-103.44222,-,-,2
2,Libre,Occidente,Occidente 3,JALISCO,ZAPOPAN,-,-,En Abril Upaxer te regala gasolina 2020,185,E05992_BP Clouthier,,158480,LIBRE,31/03/2020,14:11:53,1154225,20.669168,-103.418936,-,-,2
2,Libre,Occidente,Occidente 3,JALISCO,ZAPOPAN,-,-,En Abril Upaxer te regala gasolina 2020,295,E11073_BP Santa Margarita,,158543,LIBRE,31/03/2020,14:11:54,1154339,20.73423,-103.5772,-,-,2
2,Libre,Occidente,Occidente 3,JALISCO,ZAPOPAN,-,-,En Abril Upaxer te regala gasolina 2020,315,E05918_BP San Isidro,,158557,LIBRE,31/03/2020,17:45:48,1154658,20.741527,-103.387539,-,-,2
2,Libre,Occidente,Occidente 3,JALISCO,ZAPOPAN,-,-,En Abril Upaxer te regala gasolina 2020,321,E06685_BP Valdepeñas,,158560,LIBRE,31/03/2020,17:45:48,1154660,20.740939,-103.399063,-,-,2
2,Libre,Occidente,Occidente 3,JALISCO,ZAPOPAN,-,-,En Abril Upaxer te regala gasolina 2020,324,E07782_BP Pinar de la Venta,,158563,LIBRE,31/03/2020,17:45:48,1154662,20.729419,-103.5315,-,-,2
2,Libre,Occidente,Occidente 3,JALISCO,ZAPOPAN,-,-,En Abril Upaxer te regala gasolina 2020,327,E10335_BP Andares,,158566,LIBRE,31/03/2020,17:45:48,1154664,20.709719,-103.409207,-,-,2
2,Libre,Occidente,Occidente 3,JALISCO,ZAPOPAN,-,-,En Abril Upaxer te regala gasolina 2020,328,E06680_BP Belenes,,158567,LIBRE,31/03/2020,17:45:48,1154665,20.735291,-103.399997,-,-,2
2,Libre,Occidente,Occidente 3,JALISCO,ZAPOPAN,-,-,En Abril Upaxer te regala gasolina 2020,329,E08297_BP Colli,,158568,LIBRE,31/03/2020,17:45:48,1154666,20.649114,-103.444415,-,-,2
2,Libre,Occidente,Occidente 3,JALISCO,ZAPOPAN,-,-,En Abril Upaxer te regala gasolina 2020,353,E01599_BP Saltillo,,158585,LIBRE,31/03/2020,14:11:54,1154384,20.731135,-103.343207,-,-,2
1,Libre,Occidente,Occidente 2,JALISCO,ZAPOTLAN EL GRANDE,200300654,24/04/2020,Durante ABRIL recorre los pasillos de un Minisuper y gana dinero,3553,3553 - Tienda Neto-Ciudad Guzman,,16191,LIBRE,30/03/2020,11:19:35,1152169,19.702621,-103.4631,200300654,24/04/2020,3
1,Libre,Occidente,Occidente 2,JALISCO,ZAPOTLAN EL GRANDE,200300661,24/04/2020,En abril descubre cuánto vale tu prenda de oro,9122,BA MEGA PLAZA MI CENTRO GUZMAN,,181045,LIBRE,31/03/2020,12:58:22,1154072,19.681543,-103.473336,200300661,24/04/2020,2
1,Libre,Occidente,Occidente 3,JALISCO,ZAPOTLANEJO,200300661,24/04/2020,En abril descubre cuánto vale tu prenda de oro,9857,DAZ ZAPOTLANEJO JALISCO (9857),,121270,LIBRE,31/03/2020,12:57:51,1154012,20.622018,-103.071718,200300661,24/04/2020,2
2,Libre,Occidente,Occidente 3,JALISCO,ZAPOTLANEJO,-,-,En Abril Upaxer te regala gasolina 2020,337,E08722_BP Juan Rulfo,,158574,LIBRE,31/03/2020,17:45:48,1154667,20.603727,-103.128556,-,-,2
2,Libre,Occidente,Occidente 3,JALISCO,ZAPOTLANEJO,-,-,En Abril Upaxer te regala gasolina 2020,338,B05399_BP Tito Guizar,,158634,LIBRE,31/03/2020,17:45:48,1154668,20.607422,-103.129077,-,-,2
2,Libre,Occidente,Occidente 3,JALISCO,ZAPOTLANEJO,-,-,En Abril Upaxer te regala gasolina 2020,339,A05399_BP Juan José Arreola,,158635,LIBRE,31/03/2020,17:45:48,1154669,20.607422,-103.129074,-,-,2
1,Libre,Centro Poniente,Centro Poniente 1,MEXICO,ALMOLOYA DE JUAREZ,200300654,24/04/2020,Durante ABRIL recorre los pasillos de un Minisuper y gana dinero,8896,8896 - Tienda Neto-Almoloya,,12325,LIBRE,30/03/2020,11:19:38,1152504,19.370163,-99.75869,200300654,24/04/2020,3
1,Libre,Centro Poniente,Centro Poniente 1,MEXICO,ALMOLOYA DE JUAREZ,200300661,24/04/2020,En abril descubre cuánto vale tu prenda de oro,1530,PRESTA PRENDA ALMOLOYA DE JUAREZ (1530),,122930,LIBRE,,,1154948,19.368717,-99.758544,200300661,24/04/2020,1
2,Libre,Centro Poniente,Centro Poniente 1,MEXICO,ALMOLOYA DE JUAREZ,-,-,En Abril Upaxer te regala gasolina 2020,409,EA0013_BP Atlacomulco Toluca,,159316,LIBRE,31/03/2020,17:45:48,1154677,19.431583,-99.72633,-,-,2
1,Libre,Centro Poniente,Centro Poniente 1,MEXICO,AMANALCO,200100125,05/04/2020,Haz un trámite en la caja del banco y gana dinero_1,3185,DAZ AMANALCO DE BECERRA,,57284,LIBRE,,,1153018,19.253489,-100.01988,200100125,05/04/2020,3
2,Libre,Centro Poniente,Centro Poniente 1,MEXICO,ATIZAPAN DE ZARAGOZA,-,-,En Abril Upaxer te regala gasolina 2020,12,E08565_BP Lago de Guadalupe II,,159165,LIBRE,31/03/2020,14:11:53,1154158,19.609664,-99.233851,-,-,2
2,Libre,Centro Poniente,Centro Poniente 1,MEXICO,ATIZAPAN DE ZARAGOZA,-,-,En Abril Upaxer te regala gasolina 2020,33,E06949_BP Lago de Guadalupe I,,159182,LIBRE,31/03/2020,14:11:54,1154365,19.579924,-99.22108,-,-,2
2,Libre,Centro Poniente,Centro Poniente 1,MEXICO,ATIZAPAN DE ZARAGOZA,-,-,En Abril Upaxer te regala gasolina 2020,5,E05734_BP Palacio Atizapán,,159158,LIBRE,31/03/2020,14:11:55,1154513,19.544964,-99.2365,-,-,2
1,Libre,Centro Oriente,Centro Oriente 2,MEXICO,COACALCO,200300654,24/04/2020,Durante ABRIL recorre los pasillos de un Minisuper y gana dinero,3539,3539 - Tienda Neto-Coacalco Centro,,16180,LIBRE,,,1155022,19.631408,-99.103772,200300654,24/04/2020,0
1,Libre,Centro Poniente,Centro Poniente 1,MEXICO,COYOTEPEC,200300654,24/04/2020,Durante ABRIL recorre los pasillos de un Minisuper y gana dinero,8890,8890 - Tienda Neto-Coyotepec,,12313,LIBRE,,,1154947,19.775506,-99.208881,200300654,24/04/2020,1
2,Libre,Centro Poniente,Centro Poniente 1,MEXICO,CUAUTITLAN,-,-,En Abril Upaxer te regala gasolina 2020,194,E09223_BP José Milla,,159252,LIBRE,31/03/2020,14:11:53,1154234,19.663296,-99.171381,-,-,2
2,Libre,Centro Poniente,Centro Poniente 1,MEXICO,CUAUTITLAN,-,-,En Abril Upaxer te regala gasolina 2020,22,E04347_BP Izcalli I,,159173,LIBRE,31/03/2020,14:11:53,1154263,19.659065,-99.183097,-,-,2
2,Libre,Centro Poniente,Centro Poniente 1,MEXICO,CUAUTITLAN,-,-,En Abril Upaxer te regala gasolina 2020,26,E12595_BP Tierra Blanca,,159176,LIBRE,31/03/2020,14:11:54,1154303,19.723118,-99.172056,-,-,2
2,Libre,Centro Poniente,Centro Poniente 1,MEXICO,CUAUTITLAN,-,-,En Abril Upaxer te regala gasolina 2020,403,E10970_BP Cuautitlán Centro,,159313,LIBRE,31/03/2020,14:11:55,1154422,19.670033,-99.186667,-,-,2
2,Libre,Centro Poniente,Centro Poniente 1,MEXICO,CUAUTITLAN,-,-,En Abril Upaxer te regala gasolina 2020,512,E05963_BP Melchor Ocampo,,179101,LIBRE,31/03/2020,17:45:48,1154691,19.671461,-99.17323,-,-,2
2,Libre,Centro Poniente,Centro Poniente 1,MEXICO,CUAUTITLAN IZCALLI,-,-,En Abril Upaxer te regala gasolina 2020,113,E03331_BP Perinorte,,159216,LIBRE,31/03/2020,14:11:53,1154151,19.610723,-99.190932,-,-,2
2,Libre,Centro Poniente,Centro Poniente 1,MEXICO,CUAUTITLAN IZCALLI,-,-,En Abril Upaxer te regala gasolina 2020,27,E13016_BP Tepojaco,,159177,LIBRE,31/03/2020,14:11:54,1154314,19.645887,-99.276905,-,-,2
2,Libre,Centro Poniente,Centro Poniente 1,MEXICO,CUAUTITLAN IZCALLI,-,-,En Abril Upaxer te regala gasolina 2020,28,E08904_BP Alba,,159178,LIBRE,31/03/2020,14:11:54,1154325,19.673127,-99.23447,-,-,2
2,Libre,Centro Poniente,Centro Poniente 1,MEXICO,CUAUTITLAN IZCALLI,-,-,En Abril Upaxer te regala gasolina 2020,53,EA0001_BP Copace,,159190,LIBRE,31/03/2020,14:11:56,1154538,19.685143,-99.203835,-,-,2
1,Libre,Centro Oriente,Centro Oriente 2,MEXICO,ECATEPEC,200300654,24/04/2020,Durante ABRIL recorre los pasillos de un Minisuper y gana dinero,3821,3821 - Tienda Neto-Cd. Cuauhtemoc,,14559,LIBRE,30/03/2020,11:19:36,1152244,19.644364,-98.989111,200300654,24/04/2020,3
2,Libre,Centro Oriente,Centro Oriente 2,MEXICO,ECATEPEC,-,-,En Abril Upaxer te regala gasolina 2020,189,E06585_BP Ejidos de San Cristóbal,,159249,LIBRE,31/03/2020,14:11:53,1154229,19.620865,-99.045306,-,-,2
2,Libre,Centro Oriente,Centro Oriente 2,MEXICO,ECATEPEC,-,-,En Abril Upaxer te regala gasolina 2020,202,E05892_BP Segor,,159256,LIBRE,31/03/2020,14:11:53,1154244,19.54074,-99.039937,-,-,2
2,Libre,Centro Oriente,Centro Oriente 2,MEXICO,ECATEPEC,-,-,En Abril Upaxer te regala gasolina 2020,214,E05383_BP Tomás Chiconautla,,159262,LIBRE,31/03/2020,14:11:53,1154257,19.636532,-99.002542,-,-,2
2,Libre,Centro Oriente,Centro Oriente 2,MEXICO,ECATEPEC,-,-,En Abril Upaxer te regala gasolina 2020,231,E09409_BP Circuito Cuauhtémoc,,159268,LIBRE,31/03/2020,14:11:54,1154276,19.645958,-99.004626,-,-,2
2,Libre,Centro Oriente,Centro Oriente 2,MEXICO,ECATEPEC,-,-,En Abril Upaxer te regala gasolina 2020,490,E00234_BP Vía Morelos,,176034,LIBRE,31/03/2020,17:45:48,1154690,19.546904,-99.053116,-,-,2
2,Libre,Centro Poniente,Centro Poniente 1,MEXICO,HUEHUETOCA,-,-,En Abril Upaxer te regala gasolina 2020,35,E09349_BP Huehuetoca,,159183,LIBRE,31/03/2020,14:11:54,1154380,19.825258,-99.245895,-,-,2
2,Libre,Centro Oriente,Centro Oriente 2,MEXICO,IXTAPALUCA,-,-,En Abril Upaxer te regala gasolina 2020,411,E12567_BP Autopista,,159317,LIBRE,31/03/2020,17:45:48,1154678,19.310608,-98.828064,-,-,2
1,Libre,Centro Poniente,Centro Poniente 1,MEXICO,IXTAPAN DE LA SAL,200300654,24/04/2020,Durante ABRIL recorre los pasillos de un Minisuper y gana dinero,3541,3541 - Tienda Neto-Ixtapan de la Sal,,16187,LIBRE,30/03/2020,11:19:35,1152158,18.84505,-99.67684,200300654,24/04/2020,3
1,Libre,Centro Poniente,Centro Poniente 1,MEXICO,IXTAPAN DE LA SAL,200300661,24/04/2020,En abril descubre cuánto vale tu prenda de oro,5881,BA  PRESTA PRENDA IXTAPAN DE LA SAL (5881),,118332,LIBRE,31/03/2020,12:57:51,1153929,18.844384,-99.676104,200300661,24/04/2020,2
2,Libre,Centro Oriente,Centro Oriente 2,MEXICO,JALTENCO,-,-,En Abril Upaxer te regala gasolina 2020,200,E07129_BP Alborada,,159254,LIBRE,31/03/2020,14:11:53,1154242,19.658737,-99.0691,-,-,2
2,Libre,Centro Poniente,Centro Poniente 1,MEXICO,JILOTEPEC,-,-,En Abril Upaxer te regala gasolina 2020,38,E03830_BP Jilotepec,,159186,LIBRE,31/03/2020,14:11:55,1154406,20.08453,-99.62701,-,-,2
1,Libre,Centro Poniente,Centro Poniente 1,MEXICO,JOCOTITLAN,200300654,24/04/2020,Durante ABRIL recorre los pasillos de un Minisuper y gana dinero,9093,Jocotitlan,,82364,LIBRE,30/03/2020,11:19:40,1152639,19.711731,-99.78616,200300654,24/04/2020,3
1,Libre,Centro Poniente,Centro Poniente 1,MEXICO,JOQUICINGO,200300654,24/04/2020,Durante ABRIL recorre los pasillos de un Minisuper y gana dinero,9091,9091 - Tienda Neto - Joquicingo,,92363,LIBRE,30/03/2020,11:19:40,1152637,19.049906,-99.533646,200300654,24/04/2020,3
1,Libre,Centro Poniente,Centro Poniente 1,MEXICO,LERMA,200300654,24/04/2020,Durante ABRIL recorre los pasillos de un Minisuper y gana dinero,8892,8892 - Tienda Neto-Atarasquillo,,12319,LIBRE,,,1154871,19.32512,-99.46958,200300654,24/04/2020,1
2,Libre,Centro Poniente,Centro Poniente 1,MEXICO,LERMA,-,-,En Abril Upaxer te regala gasolina 2020,421,E04990_BP Outlet Lerma,,159320,LIBRE,31/03/2020,17:45:48,1154682,19.28149,-99.495926,-,-,2
1,Libre,Centro Poniente,Centro Poniente 1,MEXICO,MALINALCO,200300654,24/04/2020,Durante ABRIL recorre los pasillos de un Minisuper y gana dinero,3533,3533 - Tienda Neto-Santuario Chalma,,16177,LIBRE,,,1154808,18.928907,-99.43378,200300654,24/04/2020,1
2,Libre,Centro Oriente,Centro Oriente 2,MEXICO,MELCHOR OCAMPO,-,-,En Abril Upaxer te regala gasolina 2020,195,E08701_BP Paraje Cantera,,159253,LIBRE,31/03/2020,14:11:53,1154235,19.709798,-99.142121,-,-,2
2,Libre,Centro Poniente,Centro Poniente 1,MEXICO,METEPEC,-,-,En Abril Upaxer te regala gasolina 2020,94,E08901_BP Tecnológico Metepec,,159208,LIBRE,31/03/2020,14:11:56,1154586,19.270952,-99.57624,-,-,2
2,Libre,Centro Poniente,Centro Poniente 1,MEXICO,METEPEC,-,-,En Abril Upaxer te regala gasolina 2020,9,E13311_BP Circuito Metepec,,159162,LIBRE,31/03/2020,14:11:56,1154581,19.270248,-99.556235,-,-,2
2,Libre,Centro Poniente,Centro Poniente 1,MEXICO,NAUCALPAN,-,-,En Abril Upaxer te regala gasolina 2020,62,E07140_BP Fresnos,,159194,LIBRE,31/03/2020,14:11:56,1154551,19.502722,-99.26798,-,-,2
1,Libre,Centro Poniente,Centro Poniente 1,MEXICO,NICOLAS ROMERO,200300654,24/04/2020,Durante ABRIL recorre los pasillos de un Minisuper y gana dinero,342,Tienda Neto - Cahuacan,,174171,LIBRE,,,1154911,19.641368,-99.413743,200300654,24/04/2020,1
1,Libre,Centro Poniente,Centro Poniente 1,MEXICO,NICOLAS ROMERO,200300654,24/04/2020,Durante ABRIL recorre los pasillos de un Minisuper y gana dinero,373,SP LA RUEDA (373),,170938,LIBRE,30/03/2020,11:19:41,1152750,19.61378,-99.34895,200300654,24/04/2020,3
1,Libre,Centro Poniente,Centro Poniente 1,MEXICO,NICOLAS ROMERO,200300654,24/04/2020,Durante ABRIL recorre los pasillos de un Minisuper y gana dinero,408,El Trafico 2_Neto,,173543,LIBRE,30/03/2020,11:19:36,1152300,19.618808,-99.326985,200300654,24/04/2020,3
2,Libre,Centro Poniente,Centro Poniente 1,MEXICO,NICOLAS ROMERO,-,-,En Abril Upaxer te regala gasolina 2020,7,E08326_BP Nicolás Romero,,159160,LIBRE,31/03/2020,14:11:56,1154559,19.613096,-99.319214,-,-,2
2,Libre,Centro Poniente,Centro Poniente 1,MEXICO,OCOYOACAC,-,-,En Abril Upaxer te regala gasolina 2020,446,E04652_BP Club de Golf Encinos,,166126,LIBRE,31/03/2020,14:11:55,1154463,19.28391,-99.47232,-,-,2
1,Libre,Centro Poniente,Centro Poniente 1,MEXICO,OTZOLOTEPEC,200300654,24/04/2020,Durante ABRIL recorre los pasillos de un Minisuper y gana dinero,1104,1104 - Tienda Neto-Otzolotepec,,12163,LIBRE,30/03/2020,11:19:32,1151830,19.419468,-99.55939,200300654,24/04/2020,3
1,Libre,Centro Poniente,Centro Poniente 1,MEXICO,RAYON,200300661,24/04/2020,En abril descubre cuánto vale tu prenda de oro,9907,DAZ SANTA MARIA RAYON (9907),,157884,LIBRE,31/03/2020,12:57:52,1154021,19.147947,-99.582306,200300661,24/04/2020,2
1,Libre,Centro Poniente,Centro Poniente 1,MEXICO,SAN FELIPE DEL PROGRESO,200300654,24/04/2020,Durante ABRIL recorre los pasillos de un Minisuper y gana dinero,187,Santa Ana Nichi,,179920,LIBRE,30/03/2020,11:19:33,1151941,19.592143,-99.971479,200300654,24/04/2020,3
2,Libre,Centro Poniente,Centro Poniente 1,MEXICO,SAN MATEO ATENCO,-,-,En Abril Upaxer te regala gasolina 2020,10,E02929_BP San Mateo,,159163,LIBRE,31/03/2020,14:11:53,1154136,19.285196,-99.532166,-,-,2
1,Libre,Centro Oriente,Centro Oriente 2,MEXICO,TECAMAC,200100125,05/04/2020,Haz un trámite en la caja del banco y gana dinero_1,6027,BA EKT EDO DE MEX TECAMAC MEXIQUENSE,,69935,LIBRE,,,1154784,19.630207,-99.01833,200100125,05/04/2020,1
1,Libre,Centro Oriente,Centro Oriente 2,MEXICO,TECAMAC,200100125,05/04/2020,Haz un trámite en la caja del banco y gana dinero_1,9741,BA MEGA VALLE DE SAN PEDRO (9741),,157888,LIBRE,,,1154790,19.657764,-99.03166,200100125,05/04/2020,1
1,Libre,Centro Poniente,Centro Poniente 1,MEXICO,TEJUPILCO,200300654,24/04/2020,Durante ABRIL recorre los pasillos de un Minisuper y gana dinero,341,SP LLUVIANOS (341),,170115,LIBRE,30/03/2020,11:19:41,1152735,18.919884,-100.29853,200300654,24/04/2020,3
1,Libre,Centro Oriente,Centro Oriente 2,MEXICO,TEMASCALAPA,200300654,24/04/2020,Durante ABRIL recorre los pasillos de un Minisuper y gana dinero,9107,9107 - Tienda Neto  Dr Gustavo Baz,,107562,LIBRE,,,1154976,19.828043,-98.90227,200300654,24/04/2020,0
1,Libre,Centro Poniente,Centro Poniente 1,MEXICO,TEMOAYA,200300654,24/04/2020,Durante ABRIL recorre los pasillos de un Minisuper y gana dinero,8924,8924 - Temoaya,,27691,LIBRE,30/03/2020,11:19:39,1152521,19.468107,-99.59416,200300654,24/04/2020,3
1,Libre,Centro Poniente,Centro Poniente 1,MEXICO,TEMOAYA,200300661,24/04/2020,En abril descubre cuánto vale tu prenda de oro,2074,BA EKT TEMOAYA ESTADO DE MEXICO (2074),,119130,LIBRE,,,1155005,19.463123,-99.595345,200300661,24/04/2020,0
1,Libre,Centro Poniente,Centro Poniente 1,MEXICO,TENANCINGO,200300654,24/04/2020,Durante ABRIL recorre los pasillos de un Minisuper y gana dinero,9099,9099 - Tienda Neto  Tenancingo Madero,,107558,LIBRE,30/03/2020,11:19:40,1152643,18.961874,-99.59164,200300654,24/04/2020,3
1,Libre,Centro Poniente,Centro Poniente 1,MEXICO,TENANCINGO,200300661,24/04/2020,En abril descubre cuánto vale tu prenda de oro,5897,BA  PRESTA PRENDA TENANCINGO (5897),,118387,LIBRE,31/03/2020,12:57:51,1153932,18.962582,-99.59272,200300661,24/04/2020,2
2,Libre,Centro Poniente,Centro Poniente 1,MEXICO,TEOLOYUCAN,-,-,En Abril Upaxer te regala gasolina 2020,36,E04430_BP Vía Querétaro,,159184,LIBRE,31/03/2020,14:11:54,1154389,19.740338,-99.209845,-,-,2
2,Libre,Centro Poniente,Centro Poniente 1,MEXICO,TEOLOYUCAN,-,-,En Abril Upaxer te regala gasolina 2020,37,E04431_BP Vía México,,159185,LIBRE,31/03/2020,14:11:55,1154399,19.740719,-99.212486,-,-,2
1,Libre,Centro Poniente,Centro Poniente 1,MEXICO,TEXCALTITLAN,200300654,24/04/2020,Durante ABRIL recorre los pasillos de un Minisuper y gana dinero,9061,9061 - Tienda Neto Texcaltitlan ,,79864,LIBRE,30/03/2020,11:19:39,1152606,18.93009,-99.93898,200300654,24/04/2020,3
2,Libre,Centro Oriente,Centro Oriente 2,MEXICO,TLALNEPANTLA,-,-,En Abril Upaxer te regala gasolina 2020,181,E07894_BP Acatitlán,,159244,LIBRE,31/03/2020,14:11:53,1154221,19.555344,-99.179671,-,-,2
2,Libre,Centro Oriente,Centro Oriente 2,MEXICO,TLALNEPANTLA,-,-,En Abril Upaxer te regala gasolina 2020,218,E02965_BP Santa Cecilia,,159265,LIBRE,31/03/2020,14:11:53,1154261,19.549103,-99.17198,-,-,2
2,Libre,Centro Oriente,Centro Oriente 2,MEXICO,TLALNEPANTLA,-,-,En Abril Upaxer te regala gasolina 2020,219,E00256_BP Puente de Vigas,,159266,LIBRE,31/03/2020,14:11:53,1154262,19.512991,-99.213445,-,-,2
2,Libre,Centro Oriente,Centro Oriente 2,MEXICO,TLALNEPANTLA,-,-,En Abril Upaxer te regala gasolina 2020,4,E00283_BP La Cañada,,159157,LIBRE,31/03/2020,14:11:55,1154420,19.54239,-99.194824,-,-,2
2,Libre,Centro Oriente,Centro Oriente 2,MEXICO,TLALNEPANTLA,-,-,En Abril Upaxer te regala gasolina 2020,8,E06168_BP Dos Vías Tlalnepantla,,159161,LIBRE,31/03/2020,14:11:56,1154570,19.539444,-99.21012,-,-,2
1,Libre,Centro Poniente,Centro Poniente 1,MEXICO,TOLUCA,200300654,24/04/2020,Durante ABRIL recorre los pasillos de un Minisuper y gana dinero,1611,1611 - Tienda Neto-Totoltepec,,16024,LIBRE,30/03/2020,11:19:33,1151918,19.312428,-99.573204,200300654,24/04/2020,3
2,Libre,Centro Poniente,Centro Poniente 1,MEXICO,TOLUCA,-,-,En Abril Upaxer te regala gasolina 2020,341,EA0018_BP Cieneguillas,,159299,LIBRE,31/03/2020,14:11:54,1154373,19.413351,-99.86054,-,-,2
2,Libre,Centro Poniente,Centro Poniente 1,MEXICO,TOLUCA,-,-,En Abril Upaxer te regala gasolina 2020,410,E12449_BP Toluca Independencia,,166091,LIBRE,31/03/2020,17:48:36,1154697,19.244353,-99.660667,-,-,2
2,Libre,Centro Poniente,Centro Poniente 1,MEXICO,TOLUCA,-,-,En Abril Upaxer te regala gasolina 2020,411,E10621_BP Avenida Pacífico,,166128,LIBRE,31/03/2020,14:11:55,1154428,19.256931,-99.70877,-,-,2
