No tarea,tipo,Territorio,Gestor,Estado,Localidad,Folio,FCO,NOMPRO,CLV_UBICACION,nombre,USUARIO,ID_UBICACION,TIPO_ASIGNACION,FECHA_ASIGNACION,HORA_ASIGNACION,id_asig,Latitude,Longitude,Folio,FCO,dias
1,Sin Terminar,Occidente,Occidente 1,AGUASCALIENTES,AGUASCALIENTES,200300661,24/04/2020,En abril descubre cuánto vale tu prenda de oro,1342,BA EKT AGUASCALIENTES 2 ASUNCION (1342),PAX2448,120554,TOMADA POR USUARIO,01/04/2020,15:11:52,1153181,21.849482,-102.293677,200300661,24/04/2020,1
1,Sin Terminar,Occidente,Occidente 1,AGUASCALIENTES,AGUASCALIENTES,200300661,24/04/2020,En abril descubre cuánto vale tu prenda de oro,1769,DAZ SAN FRANCISCO DE LOS ROMO,PAX287,68616,TOMADA POR USUARIO,01/04/2020,14:37:04,1154029,22.07375,-102.27196,200300661,24/04/2020,1
1,Sin Terminar,Occidente,Occidente 1,AGUASCALIENTES,AGUASCALIENTES,200300661,24/04/2020,En abril descubre cuánto vale tu prenda de oro,6544,BA EKT AGUASCALIENTES CONVENCION (6544),PAX287,118904,TOMADA POR USUARIO,01/04/2020,14:37:38,1153545,21.891547,-102.275199,200300661,24/04/2020,1
1,Sin Terminar,Occidente,Occidente 1,AGUASCALIENTES,AGUASCALIENTES,200300661,24/04/2020,En abril descubre cuánto vale tu prenda de oro,9380,BA EKT AGUASCALIENTES SIGLO XXI (9380),PAX9825,118905,TOMADA POR USUARIO,01/04/2020,16:28:17,1153636,21.886744,-102.250066,200300661,24/04/2020,1
1,Sin Terminar,Occidente,Occidente 1,AGUASCALIENTES,AGUASCALIENTES,200300661,24/04/2020,En abril descubre cuánto vale tu prenda de oro,9744,BA MEGA GANDHI AGUASCALIENTES (9744),PAX2448,121334,TOMADA POR USUARIO,01/04/2020,15:13:06,1153725,21.858334,-102.29492,200300661,24/04/2020,1
2,Sin Terminar,Occidente,Occidente 1,AGUASCALIENTES,AGUASCALIENTES,-,-,En Abril Upaxer te regala gasolina 2020,434,E01104_BP Las Américas,PAX522,166114,TOMADA POR USUARIO,01/04/2020,15:39:53,1154447,21.866229,-102.300782,-,-,1
2,Sin Terminar,Occidente,Occidente 1,AGUASCALIENTES,AGUASCALIENTES,-,-,En Abril Upaxer te regala gasolina 2020,438,E04527_BP La Feria,PAX522,166118,TOMADA POR USUARIO,01/04/2020,15:39:38,1154454,21.873492,-102.31216,-,-,1
2,Sin Terminar,Occidente,Occidente 1,AGUASCALIENTES,AGUASCALIENTES,-,-,En Abril Upaxer te regala gasolina 2020,458,E11526_BP Tercer Anillo,PAX522,173117,TOMADA POR USUARIO,01/04/2020,15:40:24,1154475,21.86207,-102.2481,-,-,1
2,Sin Terminar,Occidente,Occidente 1,AGUASCALIENTES,AGUASCALIENTES,-,-,En Abril Upaxer te regala gasolina 2020,461,E13039_BP Ribier,PAX522,173120,TOMADA POR USUARIO,01/04/2020,15:47:30,1154479,21.97289,-102.2892,-,-,1
1,Sin Terminar,Occidente,Occidente 1,AGUASCALIENTES,AGUASCALIENTES,200100123,05/04/2020,Gana dinero pidiendo información de un producto del banco_1,9744,BA MEGA GANDHI AGUASCALIENTES,PAX2448,82612,TOMADA POR USUARIO,31/03/2020,12:19:15,1153087,21.859255,-102.29474,200100123,05/04/2020,2
1,Sin Terminar,Occidente,Occidente 1,AGUASCALIENTES,ASIENTOS,200300661,24/04/2020,En abril descubre cuánto vale tu prenda de oro,2780,BA MEGA PABELLON DE ARTEAGA,PAX9825,174319,TOMADA POR USUARIO,01/04/2020,16:26:45,1154038,22.147587,-102.27762,200300661,24/04/2020,1
1,Sin Terminar,Occidente,Occidente 1,AGUASCALIENTES,ASIENTOS,200100125,05/04/2020,Haz un trámite en la caja del banco y gana dinero_1,2780,BA MEGA PABELLON DE ARTEAGA,PAX287,174319,TOMADA POR USUARIO,31/03/2020,12:19:04,1153085,22.147587,-102.27762,200100125,05/04/2020,2
1,Sin Terminar,Occidente,Occidente 1,AGUASCALIENTES,CALVILLO,200300654,24/04/2020,Durante ABRIL recorre los pasillos de un Minisuper y gana dinero,110,Benito Juarez Centro,PAX9825,179040,TOMADA POR USUARIO,01/04/2020,16:30:27,1151828,21.885538,-102.296781,200300654,24/04/2020,1
1,Sin Terminar,Occidente,Occidente 1,AGUASCALIENTES,CALVILLO,200100123,05/04/2020,Gana dinero pidiendo información de un producto del banco_1,1504,BA EKT AGUASCALIENTES 1 ALLENDE,PAX2448,69418,ASIGNADA POR SISTEMA,31/03/2020,12:34:36,1153086,21.882076,-102.296915,200100123,05/04/2020,2
1,Sin Terminar,Occidente,Occidente 1,AGUASCALIENTES,JESUS MARIA,200300654,24/04/2020,Durante ABRIL recorre los pasillos de un Minisuper y gana dinero,2794,2794 - Tienda Neto-Jesus Maria,PAX522,11664,TOMADA POR USUARIO,01/04/2020,15:47:07,1152002,21.961826,-102.343025,200300654,24/04/2020,1
1,Sin Terminar,Occidente,Occidente 1,AGUASCALIENTES,JESUS MARIA,200300661,24/04/2020,En abril descubre cuánto vale tu prenda de oro,8504,BA EKT JESUS MARIA AGS (8504),PAX85569,120868,TOMADA POR USUARIO,02/04/2020,07:02:52,1153620,21.960916,-102.344147,200300661,24/04/2020,0
1,Sin Terminar,Occidente,Occidente 1,AGUASCALIENTES,RINCON DE ROMOS,200300661,24/04/2020,En abril descubre cuánto vale tu prenda de oro,2212,BA EKT AGS RINCON DE ROMOS (2212),PAX287,118906,TOMADA POR USUARIO,01/04/2020,14:36:14,1153290,22.232248,-102.320766,200300661,24/04/2020,1
1,Sin Terminar,Occidente,Occidente 1,AGUASCALIENTES,RINCON DE ROMOS,200100123,05/04/2020,Gana dinero pidiendo información de un crédito del banco_1,2212,BA EKT AGS RINCON DE ROMOS,PAX2448,69422,ASIGNADA POR SISTEMA,31/03/2020,12:35:19,1153088,22.232248,-102.32076,200100123,05/04/2020,2
1,Sin Terminar,Occidente,Occidente 1,AGUASCALIENTES,RINCON DE ROMOS,200100125,05/04/2020,Haz un trámite en la caja del banco y gana dinero_1,2212,BA EKT AGS RINCON DE ROMOS,PAX287,69422,TOMADA POR USUARIO,31/03/2020,12:19:23,1153084,22.232248,-102.32076,200100125,05/04/2020,2
1,Sin Terminar,Pacífico,Pacífico 1,BAJA CALIFORNIA,ENSENADA,200300661,24/04/2020,En abril descubre cuánto vale tu prenda de oro,2048,BA EKT ENSENADA BLVD REFORMA (2048),PAX86154,118827,TOMADA POR USUARIO,01/04/2020,12:53:31,1153236,31.840582,-116.602299,200300661,24/04/2020,1
1,Sin Terminar,Pacífico,Pacífico 1,BAJA CALIFORNIA,ENSENADA,200300661,24/04/2020,En abril descubre cuánto vale tu prenda de oro,5445,BA MEGA ENSENADA (5445),PAX86154,118819,TOMADA POR USUARIO,01/04/2020,12:52:46,1153455,31.86648,-116.625071,200300661,24/04/2020,1
1,Sin Terminar,Pacífico,Pacífico 1,BAJA CALIFORNIA,ENSENADA,200300661,24/04/2020,En abril descubre cuánto vale tu prenda de oro,5940,BA MEGA ENSENADA JUAREZ (5940),PAX86154,118820,TOMADA POR USUARIO,01/04/2020,12:53:05,1153489,31.868516,-116.626577,200300661,24/04/2020,1
1,Sin Terminar,Pacífico,Pacífico 1,BAJA CALIFORNIA,ENSENADA,200300661,24/04/2020,En abril descubre cuánto vale tu prenda de oro,6248,DAZ ENSENADA CHAPULTEPEC (6248),PAX86154,120782,TOMADA POR USUARIO,01/04/2020,12:53:50,1153952,31.782699,-116.586122,200300661,24/04/2020,1
2,Sin Terminar,Pacífico,Pacífico 1,BAJA CALIFORNIA,ENSENADA,-,-,En Abril Upaxer te regala gasolina 2020,153,E06921_BP Reforma,PAX65947,158460,TOMADA POR USUARIO,01/04/2020,19:42:36,1154191,31.837509,-116.601584,-,-,1
2,Sin Terminar,Pacífico,Pacífico 1,BAJA CALIFORNIA,ENSENADA,-,-,En Abril Upaxer te regala gasolina 2020,44,E12955_BP Costero,PAX65947,158402,TOMADA POR USUARIO,01/04/2020,19:42:56,1154458,31.844167,-116.612555,-,-,1
2,Sin Terminar,Pacífico,Pacífico 1,BAJA CALIFORNIA,ENSENADA,-,-,En Abril Upaxer te regala gasolina 2020,60,E11966_BP Loyola,PAX65947,158412,TOMADA POR USUARIO,01/04/2020,19:43:10,1154549,31.844563,-116.607834,-,-,1
2,Sin Terminar,Pacífico,Pacífico 1,BAJA CALIFORNIA,ENSENADA,-,-,En Abril Upaxer te regala gasolina 2020,65,E12106_BP Joker,PAX65947,158415,TOMADA POR USUARIO,01/04/2020,19:42:20,1154554,31.804453,-116.59419,-,-,1
1,Sin Terminar,Pacífico,Pacífico 1,BAJA CALIFORNIA,MEXICALI,200300661,24/04/2020,En abril descubre cuánto vale tu prenda de oro,2006,BA EKT MEXICALI SANTA BARBARA (2006),PAX117321,118912,TOMADA POR USUARIO,01/04/2020,18:12:43,1153225,32.644985,-115.52021,200300661,24/04/2020,1
1,Sin Terminar,Pacífico,Pacífico 1,BAJA CALIFORNIA,TIJUANA,200300661,24/04/2020,En abril descubre cuánto vale tu prenda de oro,120,BA MEGA TIJUANA OTAY (120),PAX115705,118815,TOMADA POR USUARIO,01/04/2020,14:10:41,1153177,32.535952,-116.932236,200300661,24/04/2020,1
1,Sin Terminar,Pacífico,Pacífico 1,BAJA CALIFORNIA,TIJUANA,200300661,24/04/2020,En abril descubre cuánto vale tu prenda de oro,1514,BA EKT TIJUANA EL RUBI (1514),PAX61255,118826,TOMADA POR USUARIO,01/04/2020,16:07:02,1153190,32.484917,-117.03492,200300661,24/04/2020,1
1,Sin Terminar,Pacífico,Pacífico 1,BAJA CALIFORNIA,TIJUANA,200300661,24/04/2020,En abril descubre cuánto vale tu prenda de oro,2005,BA EKT TIJUANA CUCAPAH (2005),PAX61255,118817,TOMADA POR USUARIO,01/04/2020,16:08:04,1153224,32.513353,-116.869967,200300661,24/04/2020,1
1,Sin Terminar,Pacífico,Pacífico 1,BAJA CALIFORNIA,TIJUANA,200300661,24/04/2020,En abril descubre cuánto vale tu prenda de oro,2150,BA EKT TIJUANA 3 CONSTITUCION (2150),PAX115705,118823,TOMADA POR USUARIO,01/04/2020,14:08:55,1153265,32.534442,-117.038373,200300661,24/04/2020,1
1,Sin Terminar,Pacífico,Pacífico 1,BAJA CALIFORNIA,TIJUANA,200300661,24/04/2020,En abril descubre cuánto vale tu prenda de oro,3117,BA EKT TIJUANA 4 NIÑOS HEROES (3117),PAX61255,118821,TOMADA POR USUARIO,01/04/2020,16:08:27,1153345,32.535135,-117.042597,200300661,24/04/2020,1
1,Sin Terminar,Pacífico,Pacífico 1,BAJA CALIFORNIA,TIJUANA,200300661,24/04/2020,En abril descubre cuánto vale tu prenda de oro,3450,BA EKT TIJUANA 1 LUNA PARK (3450),PAX102084,118811,TOMADA POR USUARIO,01/04/2020,15:38:45,1153356,32.484806,-116.94111,200300661,24/04/2020,1
1,Sin Terminar,Pacífico,Pacífico 1,BAJA CALIFORNIA,TIJUANA,200300661,24/04/2020,En abril descubre cuánto vale tu prenda de oro,3751,BA MEGA TIJUANA LAS BRISAS (3751),PAX102084,118810,TOMADA POR USUARIO,01/04/2020,15:38:22,1153364,32.494598,-116.958483,200300661,24/04/2020,1
1,Sin Terminar,Pacífico,Pacífico 1,BAJA CALIFORNIA,TIJUANA,200300661,24/04/2020,En abril descubre cuánto vale tu prenda de oro,5142,BA PRESTA PRENDA GUAYCURA TIJUANA (5142),PAX61255,120250,TOMADA POR USUARIO,01/04/2020,16:07:32,1153882,32.506554,-116.91754,200300661,24/04/2020,1
1,Sin Terminar,Pacífico,Pacífico 1,BAJA CALIFORNIA,TIJUANA,200300661,24/04/2020,En abril descubre cuánto vale tu prenda de oro,5830,BA MEGA TIJUANA SOLER (5830),PAX115705,118824,TOMADA POR USUARIO,01/04/2020,14:09:29,1153483,32.530928,-117.072466,200300661,24/04/2020,1
1,Sin Terminar,Pacífico,Pacífico 1,BAJA CALIFORNIA,TIJUANA,200300661,24/04/2020,En abril descubre cuánto vale tu prenda de oro,6014,BA EKT LOS PINOS TIJUANA (6014),PAX102084,118818,TOMADA POR USUARIO,01/04/2020,15:39:11,1153493,32.463154,-116.928614,200300661,24/04/2020,1
1,Sin Terminar,Pacífico,Pacífico 1,BAJA CALIFORNIA,TIJUANA,200100123,05/04/2020,Gana dinero pidiendo información de un crédito del banco_1,3428,DAZ TIJUANA LIBERTAD,PAX115705,70770,TOMADA POR USUARIO,31/03/2020,11:45:30,1153107,32.540303,-117.020457,200100123,05/04/2020,2
1,Sin Terminar,Pacífico,Pacífico 1,BAJA CALIFORNIA SUR,LOS CABOS,200300661,24/04/2020,En abril descubre cuánto vale tu prenda de oro,7582,BA EKT ESTACIONAMIENTO CABO SAN LUCAS (7582),PAX104586,118893,TOMADA POR USUARIO,01/04/2020,15:46:08,1153590,22.893678,-109.916088,200300661,24/04/2020,1
1,Sin Terminar,Pacífico,Pacífico 1,BAJA CALIFORNIA SUR,LOS CABOS,200300661,24/04/2020,En abril descubre cuánto vale tu prenda de oro,9970,PRESTA PRENDA PATIO CABO SAN LUCAS (9970),PAX104586,123254,TOMADA POR USUARIO,01/04/2020,15:45:52,1154023,22.90418,-109.933304,200300661,24/04/2020,1
1,Sin Terminar,Pacífico,Pacífico 1,BAJA CALIFORNIA SUR,LOS CABOS,200100123,05/04/2020,Gana dinero pidiendo información de un crédito del banco_1,7582,BA EKT ESTACIONAMIENTO CABO SAN LUCAS,PAX51424,33208,TOMADA POR USUARIO,01/04/2020,11:39:45,1152841,22.894262,-109.9163,200100123,05/04/2020,1
2,Sin Terminar,Pacífico,Pacífico 1,BAJA CALIFORNIA SUR,PAZ LA,-,-,En Abril Upaxer te regala gasolina 2020,477,E10082_BP 5 De Febrero,PAX87696,174179,TOMADA POR USUARIO,01/04/2020,17:03:17,1154698,19.304926,-99.20386,-,-,1
2,Sin Terminar,Pacífico,Pacífico 1,BAJA CALIFORNIA SUR,PAZ LA,-,-,En Abril Upaxer te regala gasolina 2020,481,E12374_BP Libramiento,PAX87696,174183,TOMADA POR USUARIO,01/04/2020,17:02:59,1154699,19.305231,-99.20376,-,-,1
1,Sin Terminar,Pacífico,Pacífico 1,BAJA CALIFORNIA SUR,PAZ LA,200100123,05/04/2020,Gana dinero pidiendo información de un crédito del banco_1,5429,BA MEGA LA PAZ OCAMPO,PAX69567,69406,TOMADA POR USUARIO,31/03/2020,15:51:39,1154650,24.15809,-110.31659,200100123,05/04/2020,2
1,Sin Terminar,Pacífico,Pacífico 1,BAJA CALIFORNIA SUR,PAZ LA,200100125,05/04/2020,Haz un trámite en la caja del banco y gana dinero_1,5116,BA EKT LA PAZ FORJADORES,PAX69567,25696,ASIGNADA POR SISTEMA,30/03/2020,19:45:50,1153010,24.138184,-110.312675,200100125,05/04/2020,3
2,Sin Terminar,Sur,Sur 1,CAMPECHE,CAMPECHE,-,-,En Abril Upaxer te regala gasolina 2020,283,E07156_BP Costera,PAX5797,158535,TOMADA POR USUARIO,01/04/2020,13:56:26,1154328,19.858168,-90.521286,-,-,1
2,Sin Terminar,Sur,Sur 1,CAMPECHE,CAMPECHE,-,-,En Abril Upaxer te regala gasolina 2020,289,E02778_BP Universidad,PAX5797,158540,TOMADA POR USUARIO,01/04/2020,13:58:54,1154711,19.831366,-90.55813,-,-,1
2,Sin Terminar,Sur,Sur 1,CAMPECHE,CAMPECHE,-,-,En Abril Upaxer te regala gasolina 2020,304,E00365_BP Baluartes,PAX5797,158550,TOMADA POR USUARIO,01/04/2020,13:58:07,1154348,19.840281,-90.538717,-,-,1
2,Sin Terminar,Sur,Sur 1,CAMPECHE,CAMPECHE,-,-,En Abril Upaxer te regala gasolina 2020,310,E00367_BP San Pedro,PAX5797,158552,TOMADA POR USUARIO,01/04/2020,13:57:05,1154355,19.843423,-90.530506,-,-,1
2,Sin Terminar,Sur,Sur 1,CAMPECHE,CARMEN,-,-,En Abril Upaxer te regala gasolina 2020,286,E05694_BP Cruz Blanco,PAX103422,158537,TOMADA POR USUARIO,01/04/2020,14:18:52,1154331,18.61137,-90.78927,-,-,1
2,Sin Terminar,Sur,Sur 1,CAMPECHE,CARMEN,-,-,En Abril Upaxer te regala gasolina 2020,301,E11305_BP Carmen,PAX6238,158547,TOMADA POR USUARIO,01/04/2020,14:01:03,1154345,18.655403,-91.786981,-,-,1
1,Sin Terminar,Sur,Sur 1,CAMPECHE,ESCARCEGA,200300661,24/04/2020,En abril descubre cuánto vale tu prenda de oro,2209,BA EKT CAMPECHE ESCARCEGA (2209),PAX95986,119367,TOMADA POR USUARIO,01/04/2020,16:18:19,1153289,18.607013,-90.740698,200300661,24/04/2020,1
1,Sin Terminar,Sur,Sur 1,CAMPECHE,ESCARCEGA,200300661,24/04/2020,En abril descubre cuánto vale tu prenda de oro,5778,BA PRESTA PRENDA MENDEZ  ESCARCEGA (5778),PAX95986,118392,TOMADA POR USUARIO,01/04/2020,16:18:37,1153918,18.605743,-90.72956,200300661,24/04/2020,1
2,Sin Terminar,Sur,Sur 1,CAMPECHE,ESCARCEGA,-,-,En Abril Upaxer te regala gasolina 2020,294,E10006_BP Salsipuedes,PAX103422,158542,TOMADA POR USUARIO,01/04/2020,14:18:15,1154338,18.604895,-90.721723,-,-,1
1,Sin Terminar,Sur,Sur 2,CHIAPAS,CHIAPA DE CORZO,200300661,24/04/2020,En abril descubre cuánto vale tu prenda de oro,6134,BA EKT CHIAPA DE CORZO CENTRO (6134),PAX106439,120697,TOMADA POR USUARIO,01/04/2020,12:52:39,1153521,16.708605,-93.017677,200300661,24/04/2020,1
1,Sin Terminar,Sur,Sur 2,CHIAPAS,COMITAN DE DOMINGUEZ,200300661,24/04/2020,En abril descubre cuánto vale tu prenda de oro,2969,PRESTA PRENDA COMITAN (2969),PAX87511,122908,TOMADA POR USUARIO,01/04/2020,17:19:55,1153817,16.251208,-92.13623,200300661,24/04/2020,1
1,Sin Terminar,Sur,Sur 2,CHIAPAS,COMITAN DE DOMINGUEZ,200300661,24/04/2020,En abril descubre cuánto vale tu prenda de oro,5627,BA PRESTA PRENDA CENTRO COMITAN CHIAPAS (5627),PAX87511,118349,TOMADA POR USUARIO,01/04/2020,17:19:49,1153911,16.243581,-92.138812,200300661,24/04/2020,1
1,Sin Terminar,Sur,Sur 2,CHIAPAS,COMITAN DE DOMINGUEZ,200300661,24/04/2020,En abril descubre cuánto vale tu prenda de oro,5895,BA  PRESTA PRENDA COMITAN CHIAPAS (5895),PAX87511,118386,TOMADA POR USUARIO,01/04/2020,17:20:00,1153931,16.252365,-92.133524,200300661,24/04/2020,1
1,Sin Terminar,Sur,Sur 2,CHIAPAS,HUEHUETAN,200300661,24/04/2020,En abril descubre cuánto vale tu prenda de oro,5871,DAZ HUEHUETAN (5871),PAX87858,118191,TOMADA POR USUARIO,01/04/2020,14:13:16,1153928,15.010625,-92.407885,200300661,24/04/2020,1
1,Sin Terminar,Sur,Sur 1,CHIAPAS,OCOSINGO,200300661,24/04/2020,En abril descubre cuánto vale tu prenda de oro,2077,BA EKT CHIAPAS OCOSINGO (2077),PAX107530,119372,TOMADA POR USUARIO,01/04/2020,14:12:54,1153245,16.906723,-92.089542,200300661,24/04/2020,1
1,Sin Terminar,Sur,Sur 2,CHIAPAS,OCOZOCOAUTLA DE ESPINOSA,200300661,24/04/2020,En abril descubre cuánto vale tu prenda de oro,4686,BA PRESTA PRENDA OCOZOCOAUTLA (4686),PAX98082,118370,TOMADA POR USUARIO,01/04/2020,12:54:08,1153846,16.762003,-93.374092,200300661,24/04/2020,1
1,Sin Terminar,Sur,Sur 1,CHIAPAS,PALENQUE,200300661,24/04/2020,En abril descubre cuánto vale tu prenda de oro,7579,BA MEGA PALENQUE (7579),PAX26672,119365,TOMADA POR USUARIO,01/04/2020,20:27:31,1153589,17.508358,-91.986811,200300661,24/04/2020,1
1,Sin Terminar,Sur,Sur 1,CHIAPAS,PALENQUE,200300661,24/04/2020,En abril descubre cuánto vale tu prenda de oro,9848,DAZ PALENQUE 2 (9848),PAX26672,121275,TOMADA POR USUARIO,01/04/2020,20:27:21,1154007,17.509208,-91.984311,200300661,24/04/2020,1
1,Sin Terminar,Sur,Sur 1,CHIAPAS,REFORMA,200300661,24/04/2020,En abril descubre cuánto vale tu prenda de oro,6107,PRESTA PRENDA MICROEKT CHIAPAS REFORMA (6107),PAX82914,121720,TOMADA POR USUARIO,01/04/2020,13:15:35,1153948,17.863834,-93.14874,200300661,24/04/2020,1
1,Sin Terminar,Sur,Sur 2,CHIAPAS,SAN CRISTOBAL DE LAS CASAS,200300661,24/04/2020,En abril descubre cuánto vale tu prenda de oro,1656,PRESTA PRENDA SAN CRISTOBAL DE LAS CASAS 1 (1656),PAX107530,122903,TOMADA POR USUARIO,01/04/2020,14:13:54,1153784,16.744148,-92.637012,200300661,24/04/2020,1
1,Sin Terminar,Sur,Sur 2,CHIAPAS,SAN CRISTOBAL DE LAS CASAS,200300661,24/04/2020,En abril descubre cuánto vale tu prenda de oro,4689,BA PRESTA PRENDA SAN C DE LAS CASAS 2 (4689),PAX107530,118356,TOMADA POR USUARIO,01/04/2020,14:13:09,1153847,16.719955,-92.636827,200300661,24/04/2020,1
1,Sin Terminar,Sur,Sur 2,CHIAPAS,SAN CRISTOBAL DE LAS CASAS,200300661,24/04/2020,En abril descubre cuánto vale tu prenda de oro,5390,BA PRESTA PRENDA SAN CRISTOBAL DE LAS CASAS (5390),PAX107530,119964,TOMADA POR USUARIO,01/04/2020,14:13:40,1153896,16.736396,-92.639947,200300661,24/04/2020,1
1,Sin Terminar,Sur,Sur 2,CHIAPAS,SAN CRISTOBAL DE LAS CASAS,200300661,24/04/2020,En abril descubre cuánto vale tu prenda de oro,9968,BA MEGA SAN CRISTOBAL SUR,PAX107530,174321,TOMADA POR USUARIO,01/04/2020,14:13:20,1154080,16.731613,-92.655888,200300661,24/04/2020,1
1,Sin Terminar,Sur,Sur 2,CHIAPAS,TAPACHULA,200300661,24/04/2020,En abril descubre cuánto vale tu prenda de oro,1492,BA EKT TAPACHULA PALOMAS (1492),PAX87858,119378,TOMADA POR USUARIO,01/04/2020,14:12:48,1153188,14.892913,-92.27555,200300661,24/04/2020,1
1,Sin Terminar,Sur,Sur 2,CHIAPAS,TAPACHULA,200300661,24/04/2020,En abril descubre cuánto vale tu prenda de oro,3144,BA SYR TAPACHULA (3144),PAX87858,121384,TOMADA POR USUARIO,01/04/2020,14:12:00,1153348,14.908995,-92.26597,200300661,24/04/2020,1
1,Sin Terminar,Sur,Sur 2,CHIAPAS,TAPACHULA,200300661,24/04/2020,En abril descubre cuánto vale tu prenda de oro,5908,BA MEGA TAPACHULA (5908),PAX87858,119375,TOMADA POR USUARIO,01/04/2020,14:11:30,1153487,14.909509,-92.261829,200300661,24/04/2020,1
1,Sin Terminar,Sur,Sur 2,CHIAPAS,TAPACHULA,200300661,24/04/2020,En abril descubre cuánto vale tu prenda de oro,9936,BA MEGA DIAZ ORDAZ TAPACHULA (9936),PAX87858,121359,TOMADA POR USUARIO,01/04/2020,14:12:23,1153760,14.904483,-92.24781,200300661,24/04/2020,1
1,Sin Terminar,Sur,Sur 2,CHIAPAS,TUXTLA GUTIERREZ,200300661,24/04/2020,En abril descubre cuánto vale tu prenda de oro,1397,BA EKT TUXTLA GTZ 3 CENTRO (1397),PAX49114,119456,TOMADA POR USUARIO,01/04/2020,12:52:04,1153183,16.745178,-93.110969,200300661,24/04/2020,1
1,Sin Terminar,Sur,Sur 2,CHIAPAS,TUXTLA GUTIERREZ,200300661,24/04/2020,En abril descubre cuánto vale tu prenda de oro,4407,DAZ POLIFORUM (4407),PAX106439,119502,TOMADA POR USUARIO,01/04/2020,12:52:07,1153833,16.748659,-93.080618,200300661,24/04/2020,1
1,Sin Terminar,Sur,Sur 2,CHIAPAS,TUXTLA GUTIERREZ,200300661,24/04/2020,En abril descubre cuánto vale tu prenda de oro,4691,BA PRESTA PRENDA TUXTLA GUTIERREZ (4691),PAX106439,118371,TOMADA POR USUARIO,01/04/2020,12:52:30,1153848,16.746231,-93.11803,200300661,24/04/2020,1
1,Sin Terminar,Sur,Sur 2,CHIAPAS,TUXTLA GUTIERREZ,200300661,24/04/2020,En abril descubre cuánto vale tu prenda de oro,5606,BA PRESTA PRENDA PLAZA DE LAS AMERICAS (5606),PAX98082,118328,TOMADA POR USUARIO,01/04/2020,12:53:55,1153909,16.762514,-93.140362,200300661,24/04/2020,1
1,Sin Terminar,Sur,Sur 2,CHIAPAS,TUXTLA GUTIERREZ,200300661,24/04/2020,En abril descubre cuánto vale tu prenda de oro,6527,BA EKT ALBINO CORZO CHIAPAS (6527),PAX106439,119114,TOMADA POR USUARIO,01/04/2020,12:52:17,1153544,16.749038,-93.090264,200300661,24/04/2020,1
1,Sin Terminar,Sur,Sur 2,CHIAPAS,TUXTLA GUTIERREZ,200300661,24/04/2020,En abril descubre cuánto vale tu prenda de oro,8206,BA EKT TUXTLA GTZ 2 3A SUR OTE (8206),PAX98082,119459,TOMADA POR USUARIO,01/04/2020,12:53:34,1153604,16.750103,-93.11598,200300661,24/04/2020,1
1,Sin Terminar,Sur,Sur 2,CHIAPAS,TUXTLA GUTIERREZ,200300661,24/04/2020,En abril descubre cuánto vale tu prenda de oro,9554,BA MEGA CALZADA SUMIDERO TUXTLA (9554),PAX49114,119960,TOMADA POR USUARIO,01/04/2020,12:51:51,1153670,16.775779,-93.101311,200300661,24/04/2020,1
1,Sin Terminar,Sur,Sur 2,CHIAPAS,TUXTLA GUTIERREZ,200300661,24/04/2020,En abril descubre cuánto vale tu prenda de oro,9565,BA MEGA 1 SUR PONIENTE TUXTLA G (9565),PAX106439,157146,TOMADA POR USUARIO,01/04/2020,12:52:49,1153674,16.753796,-93.124344,200300661,24/04/2020,1
1,Sin Terminar,Sur,Sur 2,CHIAPAS,TUXTLA GUTIERREZ,200300661,24/04/2020,En abril descubre cuánto vale tu prenda de oro,9661,BA EKT TUXTLA GUTIERREZ 4 CENT (9661),PAX98082,119460,TOMADA POR USUARIO,01/04/2020,12:53:43,1153684,16.753988,-93.116291,200300661,24/04/2020,1
2,Sin Terminar,Sur,Sur 2,CHIAPAS,TUXTLA GUTIERREZ,-,-,En Abril Upaxer te regala gasolina 2020,342,E04850_BP Belisario Domínguez,PAX65469,158575,TOMADA POR USUARIO,01/04/2020,14:01:36,1154374,16.756064,-93.146839,-,-,1
2,Sin Terminar,Sur,Sur 2,CHIAPAS,TUXTLA GUTIERREZ,-,-,En Abril Upaxer te regala gasolina 2020,343,E12103_BP Quetzal,PAX65469,158576,TOMADA POR USUARIO,01/04/2020,14:00:51,1154375,16.719964,-93.173663,-,-,1
2,Sin Terminar,Sur,Sur 2,CHIAPAS,TUXTLA GUTIERREZ,-,-,En Abril Upaxer te regala gasolina 2020,344,E07282_BP Jaime Sabines,PAX101308,158577,TOMADA POR USUARIO,01/04/2020,13:02:52,1154376,16.755524,-93.08186,-,-,1
2,Sin Terminar,Sur,Sur 2,CHIAPAS,TUXTLA GUTIERREZ,-,-,En Abril Upaxer te regala gasolina 2020,348,E05363_BP Ángel Albino Corzo,PAX101308,158580,TOMADA POR USUARIO,01/04/2020,12:59:21,1154379,16.733615,-93.094468,-,-,1
2,Sin Terminar,Sur,Sur 2,CHIAPAS,TUXTLA GUTIERREZ,-,-,En Abril Upaxer te regala gasolina 2020,355,E07832_BP Jaguar,PAX65469,158587,TOMADA POR USUARIO,01/04/2020,14:02:04,1154386,16.770935,-93.112404,-,-,1
2,Sin Terminar,Sur,Sur 2,CHIAPAS,TUXTLA GUTIERREZ,-,-,En Abril Upaxer te regala gasolina 2020,358,E09509_BP Tuxtlán Lugar de Conejos,PAX101308,158589,TOMADA POR USUARIO,01/04/2020,12:59:06,1154388,16.737211,-93.062987,-,-,1
2,Sin Terminar,Sur,Sur 2,CHIAPAS,TUXTLA GUTIERREZ,-,-,En Abril Upaxer te regala gasolina 2020,408,E12440_BP San Marcos,PAX65469,158617,TOMADA POR USUARIO,01/04/2020,14:01:20,1154426,16.76003,-93.177028,-,-,1
1,Sin Terminar,Norte,Norte 1,CHIHUAHUA,CHIHUAHUA,200300661,24/04/2020,En abril descubre cuánto vale tu prenda de oro,2852,DAZ SAUCITO (2852),PAX78044,121330,TOMADA POR USUARIO,01/04/2020,16:24:13,1153815,28.666768,-106.128619,200300661,24/04/2020,1
1,Sin Terminar,Norte,Norte 1,CHIHUAHUA,CHIHUAHUA,200300661,24/04/2020,En abril descubre cuánto vale tu prenda de oro,4938,BA EKT CHIHUAHUA NINOS HEROES (4938),PAX78044,118941,TOMADA POR USUARIO,02/04/2020,08:22:02,1153427,28.640268,-106.076794,200300661,24/04/2020,0
1,Sin Terminar,Norte,Norte 1,CHIHUAHUA,CHIHUAHUA,200300661,24/04/2020,En abril descubre cuánto vale tu prenda de oro,4996,BA MEGA PLAZA SIERRA (4996),PAX78044,118935,TOMADA POR USUARIO,02/04/2020,08:21:45,1153432,28.602846,-106.10174,200300661,24/04/2020,0
1,Sin Terminar,Norte,Norte 1,CHIHUAHUA,CHIHUAHUA,200300661,24/04/2020,En abril descubre cuánto vale tu prenda de oro,5363,BA PRESTA PRENDA CHIHUAHUA VALLARTA (5363),PAX78044,121098,TOMADA POR USUARIO,01/04/2020,16:23:13,1153887,28.672067,-106.102217,200300661,24/04/2020,1
2,Sin Terminar,Norte,Norte 1,CHIHUAHUA,CHIHUAHUA,-,-,En Abril Upaxer te regala gasolina 2020,502,E03296_BP Villa,PAX68510,177780,TOMADA POR USUARIO,01/04/2020,19:04:25,1154516,28.658619,-106.100741,-,-,1
2,Sin Terminar,Norte,Norte 1,CHIHUAHUA,CHIHUAHUA,-,-,En Abril Upaxer te regala gasolina 2020,506,E06158_BP Cantera,PAX68510,179096,TOMADA POR USUARIO,01/04/2020,19:04:00,1154519,28.644884,-106.100485,-,-,1
1,Sin Terminar,Norte,Norte 1,CHIHUAHUA,JUAREZ,200300661,24/04/2020,En abril descubre cuánto vale tu prenda de oro,144,BA MEGA CD JUAREZ AZT (144),PAX48418,118930,TOMADA POR USUARIO,01/04/2020,14:39:37,1153184,31.662856,-106.471654,200300661,24/04/2020,1
1,Sin Terminar,Norte,Norte 1,CHIHUAHUA,JUAREZ,200300661,24/04/2020,En abril descubre cuánto vale tu prenda de oro,2175,BA EKT CD JUAREZ LOPEZ MATEOS (2175),PAX48418,118934,TOMADA POR USUARIO,01/04/2020,14:39:25,1153269,31.713074,-106.454095,200300661,24/04/2020,1
1,Sin Terminar,Norte,Norte 1,CHIHUAHUA,JUAREZ,200100123,05/04/2020,Gana dinero pidiendo información de un producto del banco_1,116,BA EKT CD JUAREZ TORRES,PAX121997,33280,TOMADA POR USUARIO,01/04/2020,17:29:11,1154655,31.640018,-106.38998,200100123,05/04/2020,1
2,Sin Terminar,Norte,Norte 1,CHIHUAHUA,MEOQUI,-,-,En Abril Upaxer te regala gasolina 2020,505,E04354_BP Distrito 1,PAX68510,179095,TOMADA POR USUARIO,01/04/2020,19:04:36,1154703,28.669149,-106.131076,-,-,1
1,Sin Terminar,Norte,Norte 2,COAHUILA,ACUÑA,200300661,24/04/2020,En abril descubre cuánto vale tu prenda de oro,822,BA MEGA CIUDAD ACUÑA (822),PAX47730,118861,TOMADA POR USUARIO,01/04/2020,13:53:31,1153605,29.314979,-100.931306,200300661,24/04/2020,1
1,Sin Terminar,Norte,Norte 1,COAHUILA,FRANCISCO I. MADERO,200300661,24/04/2020,En abril descubre cuánto vale tu prenda de oro,6078,BA EKT FRANCISCO I MADERO (6078),PAX76244,119035,TOMADA POR USUARIO,01/04/2020,13:22:48,1153505,25.77445,-103.27225,200300661,24/04/2020,1
1,Sin Terminar,Norte,Norte 2,COAHUILA,FRONTERA,200300661,24/04/2020,En abril descubre cuánto vale tu prenda de oro,7977,BA EKT FRONTERA (7977),PAX39382,118794,TOMADA POR USUARIO,01/04/2020,13:25:37,1153597,26.926152,-101.452815,200300661,24/04/2020,1
1,Sin Terminar,Norte,Norte 1,COAHUILA,MATAMOROS,200300661,24/04/2020,En abril descubre cuánto vale tu prenda de oro,2394,BA EKT MATAMOROS LA LAGUNA (2394),PAX76244,120005,TOMADA POR USUARIO,01/04/2020,13:21:24,1153308,25.530579,-103.229081,200300661,24/04/2020,1
1,Sin Terminar,Norte,Norte 2,COAHUILA,MONCLOVA,200300661,24/04/2020,En abril descubre cuánto vale tu prenda de oro,5212,BA MEGA MONCLOVA (5212),PAX90925,118795,TOMADA POR USUARIO,01/04/2020,13:20:03,1153442,26.899057,-101.416692,200300661,24/04/2020,1
2,Sin Terminar,Norte,Norte 2,COAHUILA,MONCLOVA,-,-,En Abril Upaxer te regala gasolina 2020,489,E06802_BP Obrera,PAX105957,174309,TOMADA POR USUARIO,01/04/2020,17:34:29,1154700,26.869359,-101.426925,-,-,1
1,Sin Terminar,Norte,Norte 2,COAHUILA,MUZQUIZ,200300661,24/04/2020,En abril descubre cuánto vale tu prenda de oro,770,BA MEGA MUZQUIZ (770),PAX47730,118863,TOMADA POR USUARIO,01/04/2020,13:53:59,1153593,27.879002,-101.516198,200300661,24/04/2020,1
1,Sin Terminar,Norte,Norte 2,COAHUILA,PIEDRAS NEGRAS,200300661,24/04/2020,En abril descubre cuánto vale tu prenda de oro,6334,BA MEGA PIEDRAS NEGRAS (6334),PAX39382,118862,TOMADA POR USUARIO,01/04/2020,13:24:24,1153539,28.702489,-100.516662,200300661,24/04/2020,1
1,Sin Terminar,Norte,Norte 2,COAHUILA,PIEDRAS NEGRAS,200300661,24/04/2020,En abril descubre cuánto vale tu prenda de oro,8175,DAZ SORIANA PIEDRAS NEGRAS (8175),PAX47730,118170,TOMADA POR USUARIO,01/04/2020,13:53:50,1153971,28.685455,-100.544509,200300661,24/04/2020,1
1,Sin Terminar,Norte,Norte 1,COAHUILA,RAMOS ARIZPE,200300661,24/04/2020,En abril descubre cuánto vale tu prenda de oro,4181,BA EKT COAHUILA RAMOS PLAZA BELLA (4181),PAX90925,119997,TOMADA POR USUARIO,01/04/2020,13:19:19,1153381,25.548334,-100.94361,200300661,24/04/2020,1
1,Sin Terminar,Norte,Norte 2,COAHUILA,SABINAS,200300661,24/04/2020,En abril descubre cuánto vale tu prenda de oro,4116,BA EKT SABINAS COAHUILA (4116),PAX39382,118792,TOMADA POR USUARIO,01/04/2020,13:25:15,1153377,27.854339,-101.125621,200300661,24/04/2020,1
1,Sin Terminar,Norte,Norte 1,COAHUILA,SALTILLO,200300687,05/04/2020,Durante Abril pregunta sobre Créditos Personales,4080,BA MEGA SALTILLO ALLENDE,PAX96275,69345,ASIGNADA POR SISTEMA,31/03/2020,20:29:27,1154742,25.424088,-101.000656,200300687,05/04/2020,2
1,Sin Terminar,Norte,Norte 1,COAHUILA,SALTILLO,200300661,24/04/2020,En abril descubre cuánto vale tu prenda de oro,2891,BA MEGA SALTILLO 2 (2891),PAX90925,118864,TOMADA POR USUARIO,01/04/2020,13:18:43,1153335,25.425194,-101.00435,200300661,24/04/2020,1
1,Sin Terminar,Norte,Norte 1,COAHUILA,SALTILLO,200300661,24/04/2020,En abril descubre cuánto vale tu prenda de oro,4080,BA MEGA SALTILLO ALLENDE (4080),PAX90925,118865,TOMADA POR USUARIO,01/04/2020,13:17:59,1153376,25.424088,-101.000656,200300661,24/04/2020,1
1,Sin Terminar,Norte,Norte 1,COAHUILA,SALTILLO,200300661,24/04/2020,En abril descubre cuánto vale tu prenda de oro,9879,BA EKT SALTILLO LOURDES (9879),PAX90925,118796,TOMADA POR USUARIO,01/04/2020,13:17:07,1153754,25.393883,-101.002246,200300661,24/04/2020,1
2,Sin Terminar,Norte,Norte 2,COAHUILA,SAN BUENAVENTURA,-,-,En Abril Upaxer te regala gasolina 2020,436,E04696_BP San Buena,PAX105957,158630,TOMADA POR USUARIO,01/04/2020,17:34:48,1154450,27.05955,-101.541176,-,-,1
2,Sin Terminar,Norte,Norte 2,COAHUILA,SAN BUENAVENTURA,-,-,En Abril Upaxer te regala gasolina 2020,449,E02233_BP Servicio Gutiérrez,PAX105957,166197,TOMADA POR USUARIO,01/04/2020,17:35:13,1154466,27.044254,-101.52984,-,-,1
2,Sin Terminar,Norte,Norte 2,COAHUILA,SAN BUENAVENTURA,-,-,En Abril Upaxer te regala gasolina 2020,491,E09520_BP Río Monclova,PAX105957,176035,TOMADA POR USUARIO,01/04/2020,17:35:31,1154701,26.901438,-101.413938,-,-,1
1,Sin Terminar,Norte,Norte 1,COAHUILA,SAN PEDRO,200300661,24/04/2020,En abril descubre cuánto vale tu prenda de oro,5539,BA EKT SAN PEDRO DE LAS COLONIAS (5539),PAX76244,119030,TOMADA POR USUARIO,01/04/2020,15:51:32,1153461,25.755377,-102.98107,200300661,24/04/2020,1
1,Sin Terminar,Occidente,Occidente 2,COLIMA,COLIMA,200300661,24/04/2020,En abril descubre cuánto vale tu prenda de oro,7689,BA MEGA COLIMA (7689),PAX79596,119339,TOMADA POR USUARIO,01/04/2020,13:00:38,1153592,19.245096,-103.728977,200300661,24/04/2020,1
1,Sin Terminar,Occidente,Occidente 2,COLIMA,VILLA DE ALVAREZ,200300661,24/04/2020,En abril descubre cuánto vale tu prenda de oro,6117,BA EKT COLIMA VILLA DE ALVAREZ (6117),PAX79596,119345,TOMADA POR USUARIO,01/04/2020,13:31:22,1153516,19.271923,-103.734817,200300661,24/04/2020,1
1,Sin Terminar,Centro Poniente,Centro Poniente 2,DISTRITO FEDERAL,ALVARO OBREGON,200300654,24/04/2020,Durante ABRIL recorre los pasillos de un Minisuper y gana dinero,1815,1815 - Tienda Neto-Vasco De Quiroga,PAX72298,18707,TOMADA POR USUARIO,01/04/2020,13:25:20,1151937,19.383525,-99.233803,200300654,24/04/2020,1
1,Sin Terminar,Centro Poniente,Centro Poniente 2,DISTRITO FEDERAL,ALVARO OBREGON,200300654,24/04/2020,Durante ABRIL recorre los pasillos de un Minisuper y gana dinero,1995,1995 - Tienda Neto-29 De Octubre,jroman,12339,ASIGNADA POR SISTEMA,31/03/2020,12:58:39,1151951,19.32895,-99.25433,200300654,24/04/2020,2
1,Sin Terminar,Centro Poniente,Centro Poniente 2,DISTRITO FEDERAL,ALVARO OBREGON,200300654,24/04/2020,Durante ABRIL recorre los pasillos de un Minisuper y gana dinero,2973,2973 - Tienda Neto-Lomas De La Hera,jroman,12137,ASIGNADA POR SISTEMA,31/03/2020,12:58:39,1152070,19.324488,-99.26066,200300654,24/04/2020,2
1,Sin Terminar,Centro Poniente,Centro Poniente 2,DISTRITO FEDERAL,ALVARO OBREGON,200300654,24/04/2020,Durante ABRIL recorre los pasillos de un Minisuper y gana dinero,2974,2974 - Tienda Neto-Austriacos,PAX108781,16004,TOMADA POR USUARIO,01/04/2020,13:12:39,1152071,19.389193,-99.21158,200300654,24/04/2020,1
1,Sin Terminar,Centro Poniente,Centro Poniente 2,DISTRITO FEDERAL,ALVARO OBREGON,200300654,24/04/2020,Durante ABRIL recorre los pasillos de un Minisuper y gana dinero,374,Plateros_Neto,PAX82736,173526,TOMADA POR USUARIO,01/04/2020,13:06:46,1152215,19.36622,-99.203697,200300654,24/04/2020,1
1,Sin Terminar,Centro Poniente,Centro Poniente 2,DISTRITO FEDERAL,ALVARO OBREGON,200300654,24/04/2020,Durante ABRIL recorre los pasillos de un Minisuper y gana dinero,3935,3935 - Tienda Neto-Calle 1,PAX72298,11818,TOMADA POR USUARIO,01/04/2020,13:25:34,1152283,19.383441,-99.218051,200300654,24/04/2020,1
1,Sin Terminar,Centro Poniente,Centro Poniente 2,DISTRITO FEDERAL,ALVARO OBREGON,200300654,24/04/2020,Durante ABRIL recorre los pasillos de un Minisuper y gana dinero,5880,5880 - Tienda Neto-Tamaulipas,PAX72298,16164,TOMADA POR USUARIO,01/04/2020,13:24:37,1152415,19.36305,-99.24814,200300654,24/04/2020,1
1,Sin Terminar,Centro Poniente,Centro Poniente 2,DISTRITO FEDERAL,ALVARO OBREGON,200300654,24/04/2020,Durante ABRIL recorre los pasillos de un Minisuper y gana dinero,7211,7211 - Tienda Neto-P. Mazatlan,PAX72298,12164,TOMADA POR USUARIO,01/04/2020,13:25:06,1152442,19.372759,-99.23196,200300654,24/04/2020,1
1,Sin Terminar,Centro Poniente,Centro Poniente 2,DISTRITO FEDERAL,ALVARO OBREGON,200300654,24/04/2020,Durante ABRIL recorre los pasillos de un Minisuper y gana dinero,9026,9026 Tienda Neto Olivar del Conde,PAX72298,64021,TOMADA POR USUARIO,01/04/2020,13:24:51,1152580,19.371662,-99.21437,200300654,24/04/2020,1
1,Sin Terminar,Centro Poniente,Centro Poniente 2,DISTRITO FEDERAL,ALVARO OBREGON,200300654,24/04/2020,Durante ABRIL recorre los pasillos de un Minisuper y gana dinero,9106,SP SANTA ROSA XOCHIAC (9106),jroman,124507,ASIGNADA POR SISTEMA,31/03/2020,12:58:39,1152784,19.327744,-99.285508,200300654,24/04/2020,2
1,Sin Terminar,Centro Poniente,Centro Poniente 2,DISTRITO FEDERAL,ALVARO OBREGON,200300661,24/04/2020,En abril descubre cuánto vale tu prenda de oro,2024,BA MEGA SAN ANGEL (2024),PAX120930,119076,TOMADA POR USUARIO,01/04/2020,12:54:16,1153233,19.343435,-99.190674,200300661,24/04/2020,1
1,Sin Terminar,Centro Poniente,Centro Poniente 2,DISTRITO FEDERAL,ALVARO OBREGON,200300661,24/04/2020,En abril descubre cuánto vale tu prenda de oro,6318,BA MEGA SANTA FE DF (6318),PAX47686,119073,TOMADA POR USUARIO,01/04/2020,12:59:34,1153538,19.383069,-99.235109,200300661,24/04/2020,1
2,Sin Terminar,Centro Poniente,Centro Poniente 2,DISTRITO FEDERAL,ALVARO OBREGON,-,-,En Abril Upaxer te regala gasolina 2020,419,E06176_BP San Antonio,PAX90984,159319,TOMADA POR USUARIO,01/04/2020,13:26:59,1154680,19.387856,-99.189514,-,-,1
1,Sin Terminar,Centro Poniente,Centro Poniente 2,DISTRITO FEDERAL,ALVARO OBREGON,200100123,05/04/2020,Gana dinero pidiendo información de un crédito del banco_1,6224,BA EKT LAS AGUILAS DF,PAX8542,70047,TOMADA POR USUARIO,01/04/2020,16:06:31,1154853,19.355679,-99.21538,200100123,05/04/2020,1
1,Sin Terminar,Centro Poniente,Centro Poniente 2,DISTRITO FEDERAL,ALVARO OBREGON,19030897,Indefinido,Programa de Certificación Azteca Servicios,,CERTSUPERIOR S DE RL DE CV,PAX73069,180908,ASIGNADA POR SISTEMA,16/03/2020,20:10:03,1142426,19.367032,-99.261175,19030897,Indefinido,17
1,Sin Terminar,Centro Poniente,Centro Poniente 2,DISTRITO FEDERAL,ALVARO OBREGON,19030897,Indefinido,Programa de Certificación Azteca Servicios,,GP SERVICIOS E INSTALACIONES SA DE CV,PAX57248,180986,ASIGNADA POR SISTEMA,26/03/2020,13:34:57,1149848,19.281635,-99.163559,19030897,Indefinido,7
1,Sin Terminar,Centro Oriente,Centro Oriente 1,DISTRITO FEDERAL,AZCAPOTZALCO,200300654,24/04/2020,Durante ABRIL recorre los pasillos de un Minisuper y gana dinero,2790,2790 - Tienda Neto-Rayon,PAX71330,18337,TOMADA POR USUARIO,01/04/2020,13:18:09,1152000,19.481219,-99.184926,200300654,24/04/2020,1
1,Sin Terminar,Centro Oriente,Centro Oriente 1,DISTRITO FEDERAL,AZCAPOTZALCO,200300654,24/04/2020,Durante ABRIL recorre los pasillos de un Minisuper y gana dinero,2975,2975 - Tienda Neto-San Pablo Xalpa,PAX107518,18364,TOMADA POR USUARIO,01/04/2020,13:23:14,1152072,19.497627,-99.184395,200300654,24/04/2020,1
1,Sin Terminar,Centro Oriente,Centro Oriente 1,DISTRITO FEDERAL,AZCAPOTZALCO,200300654,24/04/2020,Durante ABRIL recorre los pasillos de un Minisuper y gana dinero,2977,2977 - Tienda Neto-Av. Hidalgo,PAX107518,11467,TOMADA POR USUARIO,01/04/2020,13:22:47,1152074,19.494441,-99.179132,200300654,24/04/2020,1
1,Sin Terminar,Centro Oriente,Centro Oriente 1,DISTRITO FEDERAL,AZCAPOTZALCO,200300654,24/04/2020,Durante ABRIL recorre los pasillos de un Minisuper y gana dinero,908,908 - Tienda Neto-Tlatilco 2,PAX93959,18552,TOMADA POR USUARIO,01/04/2020,13:23:18,1152626,19.461786,-99.163155,200300654,24/04/2020,1
1,Sin Terminar,Centro Oriente,Centro Oriente 1,DISTRITO FEDERAL,AZCAPOTZALCO,200300654,24/04/2020,Durante ABRIL recorre los pasillos de un Minisuper y gana dinero,923,923 - Tienda Neto-Azcapotzalco,PAX71330,11471,TOMADA POR USUARIO,01/04/2020,13:17:32,1152658,19.483381,-99.186844,200300654,24/04/2020,1
1,Sin Terminar,Centro Oriente,Centro Oriente 1,DISTRITO FEDERAL,AZCAPOTZALCO,200300661,24/04/2020,En abril descubre cuánto vale tu prenda de oro,107,BA EKT AZCAPOTZALCO (107),PAX71311,119346,TOMADA POR USUARIO,01/04/2020,13:09:10,1153162,19.48195,-99.183975,200300661,24/04/2020,1
1,Sin Terminar,Centro Oriente,Centro Oriente 1,DISTRITO FEDERAL,AZCAPOTZALCO,200300661,24/04/2020,En abril descubre cuánto vale tu prenda de oro,3322,BA MEGA AV JARDIN CDMX,PAX115504,174317,TOMADA POR USUARIO,01/04/2020,12:53:10,1154048,19.46843,-99.15939,200300661,24/04/2020,1
1,Sin Terminar,Centro Oriente,Centro Oriente 1,DISTRITO FEDERAL,AZCAPOTZALCO,200300661,24/04/2020,En abril descubre cuánto vale tu prenda de oro,5258,BA PRESTA PRENDA PRO HOGAR (5258),PAX57800,118380,TOMADA POR USUARIO,01/04/2020,12:51:07,1153884,19.475981,-99.152708,200300661,24/04/2020,1
1,Sin Terminar,Centro Oriente,Centro Oriente 1,DISTRITO FEDERAL,AZCAPOTZALCO,200300661,24/04/2020,En abril descubre cuánto vale tu prenda de oro,7391,BA MEGA TIJUANA DIAZ ORDAZ (7391),PAX115705,118812,TOMADA POR USUARIO,01/04/2020,14:08:04,1153583,32.500347,-116.969246,200300661,24/04/2020,1
2,Sin Terminar,Centro Oriente,Centro Oriente 1,DISTRITO FEDERAL,AZCAPOTZALCO,-,-,En Abril Upaxer te regala gasolina 2020,183,E00071_BP Clavería,PAX121598,159246,TOMADA POR USUARIO,01/04/2020,17:06:38,1154223,19.462473,-99.17788,-,-,1
1,Sin Terminar,Centro Oriente,Centro Oriente 1,DISTRITO FEDERAL,AZCAPOTZALCO,200100123,05/04/2020,Gana dinero pidiendo información de un producto del banco_1,5746,BA MEGA AZCAPOTZALCO,PAX122018,27875,TOMADA POR USUARIO,01/04/2020,13:54:05,1154769,19.48024,-99.18682,200100123,05/04/2020,1
1,Sin Terminar,Centro Oriente,Centro Oriente 1,DISTRITO FEDERAL,AZCAPOTZALCO,19030897,Indefinido,Programa de Certificación Azteca Servicios,,KONIBIT MEXICO S.A. DE C.V.,alirae,173407,ASIGNADA POR SISTEMA,13/03/2020,19:40:50,1064830,19.470552,-99.18448,19030897,Indefinido,20
1,Sin Terminar,Centro Poniente,Centro Poniente 2,DISTRITO FEDERAL,BENITO JUAREZ,200300661,24/04/2020,En abril descubre cuánto vale tu prenda de oro,1627,BA MEGA PORTALES (1627),PAX115504,119077,TOMADA POR USUARIO,01/04/2020,12:53:56,1153199,19.370762,-99.143119,200300661,24/04/2020,1
1,Sin Terminar,Centro Poniente,Centro Poniente 2,DISTRITO FEDERAL,BENITO JUAREZ,200300661,24/04/2020,En abril descubre cuánto vale tu prenda de oro,5840,BA PRESTA PRENDA NARVARTE BENITO JUAREZ (5840),PAX115504,118344,TOMADA POR USUARIO,01/04/2020,12:54:12,1153924,19.383099,-99.15794,200300661,24/04/2020,1
2,Sin Terminar,Centro Poniente,Centro Poniente 2,DISTRITO FEDERAL,BENITO JUAREZ,-,-,En Abril Upaxer te regala gasolina 2020,190,E02769_BP Félix Cuevas,PAX90984,159250,TOMADA POR USUARIO,01/04/2020,13:26:43,1154230,19.372111,-99.172889,-,-,1
1,Sin Terminar,Centro Poniente,Centro Poniente 2,DISTRITO FEDERAL,COYOACAN,200300654,24/04/2020,Durante ABRIL recorre los pasillos de un Minisuper y gana dinero,118,San Raul,jroman,179066,ASIGNADA POR SISTEMA,31/03/2020,12:58:39,1151857,19.311659,-99.145866,200300654,24/04/2020,2
1,Sin Terminar,Centro Poniente,Centro Poniente 2,DISTRITO FEDERAL,COYOACAN,200300654,24/04/2020,Durante ABRIL recorre los pasillos de un Minisuper y gana dinero,1621,1621 - Tienda Neto-Ajusco,jroman,11450,ASIGNADA POR SISTEMA,31/03/2020,12:58:39,1151921,19.31508,-99.16171,200300654,24/04/2020,2
1,Sin Terminar,Centro Poniente,Centro Poniente 2,DISTRITO FEDERAL,COYOACAN,200300654,24/04/2020,Durante ABRIL recorre los pasillos de un Minisuper y gana dinero,425,Anacahuita,jroman,174282,ASIGNADA POR SISTEMA,31/03/2020,12:58:39,1152317,19.332081,-99.170749,200300654,24/04/2020,2
1,Sin Terminar,Centro Poniente,Centro Poniente 2,DISTRITO FEDERAL,COYOACAN,200300654,24/04/2020,Durante ABRIL recorre los pasillos de un Minisuper y gana dinero,4499,4499 - Tienda Neto-Santa Ursula Coapa,jroman,18521,ASIGNADA POR SISTEMA,31/03/2020,12:58:39,1152356,19.311573,-99.149345,200300654,24/04/2020,2
1,Sin Terminar,Centro Poniente,Centro Poniente 2,DISTRITO FEDERAL,COYOACAN,200300654,24/04/2020,Durante ABRIL recorre los pasillos de un Minisuper y gana dinero,904,904 - Tienda Neto-Escuinapa,jroman,11633,ASIGNADA POR SISTEMA,31/03/2020,12:58:39,1152590,19.331633,-99.169174,200300654,24/04/2020,2
1,Sin Terminar,Centro Poniente,Centro Poniente 2,DISTRITO FEDERAL,COYOACAN,200300661,24/04/2020,En abril descubre cuánto vale tu prenda de oro,100,BA MEGA DF LA LUNA (100),PAX63455,119053,TOMADA POR USUARIO,01/04/2020,12:54:16,1153158,19.298221,-99.151968,200300661,24/04/2020,1
1,Sin Terminar,Centro Poniente,Centro Poniente 2,DISTRITO FEDERAL,COYOACAN,200300661,24/04/2020,En abril descubre cuánto vale tu prenda de oro,2244,BA MEGA AV AZTECAS DF (2244),PAX104917,119057,TOMADA POR USUARIO,01/04/2020,13:01:47,1153299,19.318184,-99.163936,200300661,24/04/2020,1
1,Sin Terminar,Centro Poniente,Centro Poniente 2,DISTRITO FEDERAL,COYOACAN,200300661,24/04/2020,En abril descubre cuánto vale tu prenda de oro,5492,BA PRESTA PRENDA ARMADA DE MEX CAFETALES (5492),PAX115678,121210,TOMADA POR USUARIO,01/04/2020,12:59:31,1153900,19.313492,-99.110689,200300661,24/04/2020,1
1,Sin Terminar,Centro Poniente,Centro Poniente 2,DISTRITO FEDERAL,COYOACAN,200300661,24/04/2020,En abril descubre cuánto vale tu prenda de oro,673,PRESTA PRENDA MIRAMONTES (673),PAX108782,121832,TOMADA POR USUARIO,01/04/2020,12:56:37,1153956,19.307166,-99.124554,200300661,24/04/2020,1
1,Sin Terminar,Centro Poniente,Centro Poniente 2,DISTRITO FEDERAL,COYOACAN,200300661,24/04/2020,En abril descubre cuánto vale tu prenda de oro,8131,DAZ COYOACAN PLAZA CANTIL (8131),PAX104917,118171,TOMADA POR USUARIO,01/04/2020,13:02:10,1153969,19.328669,-99.154528,200300661,24/04/2020,1
1,Sin Terminar,Centro Poniente,Centro Poniente 2,DISTRITO FEDERAL,COYOACAN,200100123,05/04/2020,Gana dinero pidiendo información de un producto del banco_1,2187,DAZ SANTA ANA COYOACAN,PAX108372,70598,TOMADA POR USUARIO,01/04/2020,15:29:44,1154839,19.329127,-99.125059,200100123,05/04/2020,1
1,Sin Terminar,Centro Poniente,Centro Poniente 2,DISTRITO FEDERAL,COYOACAN,200100123,05/04/2020,Gana dinero pidiendo información de un producto del banco_1,673,BA MEGA MIRAMONTES,PAX108372,69539,TOMADA POR USUARIO,01/04/2020,15:29:34,1154840,19.3076,-99.1244,200100123,05/04/2020,1
1,Sin Terminar,Centro Poniente,Centro Poniente 2,DISTRITO FEDERAL,COYOACAN,19030897,Indefinido,Programa de Certificación Azteca Comercializadores,,GRUPO DIGITAL ON LINE Y SISTEMAS SA DE CV,PAX49171,180982,ASIGNADA POR SISTEMA,26/03/2020,13:36:54,1149849,19.307252,-99.114254,19030897,Indefinido,7
1,Sin Terminar,Centro Poniente,Centro Poniente 2,DISTRITO FEDERAL,CUAJIMALPA DE MORELOS,200300654,24/04/2020,Durante ABRIL recorre los pasillos de un Minisuper y gana dinero,1862,1862 - Tienda Neto-San Jose,PAX73069,18358,TOMADA POR USUARIO,01/04/2020,13:22:12,1151940,19.369935,-99.291424,200300654,24/04/2020,1
1,Sin Terminar,Centro Poniente,Centro Poniente 2,DISTRITO FEDERAL,CUAJIMALPA DE MORELOS,200300654,24/04/2020,Durante ABRIL recorre los pasillos de un Minisuper y gana dinero,2801,2801 - Tienda Neto-Hector Victoria,PAX73069,11647,TOMADA POR USUARIO,01/04/2020,13:20:27,1152008,19.372179,-99.28516,200300654,24/04/2020,1
1,Sin Terminar,Centro Poniente,Centro Poniente 2,DISTRITO FEDERAL,CUAJIMALPA DE MORELOS,200300654,24/04/2020,Durante ABRIL recorre los pasillos de un Minisuper y gana dinero,3462,3462 - Tienda Neto-Cuajimalpa,PAX73069,16008,TOMADA POR USUARIO,01/04/2020,13:21:11,1152126,19.356297,-99.30021,200300654,24/04/2020,1
1,Sin Terminar,Centro Poniente,Centro Poniente 2,DISTRITO FEDERAL,CUAJIMALPA DE MORELOS,200300661,24/04/2020,En abril descubre cuánto vale tu prenda de oro,8701,BA MEGA CUAJIMALPA (8701),PAX108782,120892,TOMADA POR USUARIO,01/04/2020,16:32:42,1154783,19.355936,-99.299993,200300661,24/04/2020,1
1,Sin Terminar,Centro Poniente,Centro Poniente 2,DISTRITO FEDERAL,CUAUHTEMOC,200300654,24/04/2020,Durante ABRIL recorre los pasillos de un Minisuper y gana dinero,184,Ecuador,PAX115469,179919,TOMADA POR USUARIO,01/04/2020,13:11:55,1151938,19.442717,-99.137074,200300654,24/04/2020,1
1,Sin Terminar,Centro Poniente,Centro Poniente 2,DISTRITO FEDERAL,CUAUHTEMOC,200300654,24/04/2020,Durante ABRIL recorre los pasillos de un Minisuper y gana dinero,2986,2986 - Tienda Neto-Sabino,PAX117154,18350,TOMADA POR USUARIO,02/04/2020,08:01:45,1155002,19.450548,-99.159744,200300654,24/04/2020,0
1,Sin Terminar,Centro Poniente,Centro Poniente 2,DISTRITO FEDERAL,CUAUHTEMOC,200300654,24/04/2020,Durante ABRIL recorre los pasillos de un Minisuper y gana dinero,3808,3808 - Tienda Neto-Morelos,PAX108920,14554,TOMADA POR USUARIO,01/04/2020,13:08:20,1152232,19.43954,-99.11614,200300654,24/04/2020,1
1,Sin Terminar,Centro Poniente,Centro Poniente 2,DISTRITO FEDERAL,CUAUHTEMOC,200300654,24/04/2020,Durante ABRIL recorre los pasillos de un Minisuper y gana dinero,3840,3840 - Tienda Neto-Manuel Doblado,PAX108920,18327,TOMADA POR USUARIO,01/04/2020,13:08:58,1152257,19.439458,-99.125153,200300654,24/04/2020,1
1,Sin Terminar,Centro Poniente,Centro Poniente 2,DISTRITO FEDERAL,CUAUHTEMOC,200300654,24/04/2020,Durante ABRIL recorre los pasillos de un Minisuper y gana dinero,3898,3898 - Tienda Neto-Rosas Moreno,PAX13890,11812,TOMADA POR USUARIO,01/04/2020,13:19:21,1152269,19.441261,-99.160631,200300654,24/04/2020,1
1,Sin Terminar,Centro Poniente,Centro Poniente 2,DISTRITO FEDERAL,CUAUHTEMOC,200300654,24/04/2020,Durante ABRIL recorre los pasillos de un Minisuper y gana dinero,391,Tienda Neto - Dr Jimenez,PAX108860,174170,TOMADA POR USUARIO,01/04/2020,13:11:17,1152277,19.410896,-99.150488,200300654,24/04/2020,1
1,Sin Terminar,Centro Poniente,Centro Poniente 2,DISTRITO FEDERAL,CUAUHTEMOC,200300654,24/04/2020,Durante ABRIL recorre los pasillos de un Minisuper y gana dinero,400,SP LA OBRERA (400),PAX108860,170943,TOMADA POR USUARIO,01/04/2020,13:11:35,1152754,19.40869,-99.1376,200300654,24/04/2020,1
2,Sin Terminar,Centro Poniente,Centro Poniente 2,DISTRITO FEDERAL,CUAUHTEMOC,-,-,En Abril Upaxer te regala gasolina 2020,15,E05499_BP San Cosme,PAX90984,159168,TOMADA POR USUARIO,01/04/2020,13:27:56,1154187,19.442305,-99.16319,-,-,1
2,Sin Terminar,Centro Poniente,Centro Poniente 2,DISTRITO FEDERAL,CUAUHTEMOC,-,-,En Abril Upaxer te regala gasolina 2020,21,E00014_BP Mérida,PAX90984,159172,TOMADA POR USUARIO,01/04/2020,13:27:18,1154252,19.419054,-99.15728,-,-,1
1,Sin Terminar,Centro Oriente,Centro Oriente 1,DISTRITO FEDERAL,GUSTAVO A MADERO,200300654,24/04/2020,Durante ABRIL recorre los pasillos de un Minisuper y gana dinero,249,Chabelita,PAX108778,176011,TOMADA POR USUARIO,01/04/2020,16:00:24,1154854,19.554482,-99.136207,200300654,24/04/2020,1
1,Sin Terminar,Centro Oriente,Centro Oriente 1,DISTRITO FEDERAL,GUSTAVO A MADERO,200300661,24/04/2020,En abril descubre cuánto vale tu prenda de oro,4673,BA PRESTA PRENDA MARTIN CARRERA GAM (4673),PAX82896,118365,TOMADA POR USUARIO,01/04/2020,12:51:59,1153841,19.489139,-99.105495,200300661,24/04/2020,1
1,Sin Terminar,Centro Oriente,Centro Oriente 1,DISTRITO FEDERAL,GUSTAVO A MADERO,200300661,13/04/2020,En abril descubre cuánto vale tu prenda de oro CDMX,4793,BA PRESTA PRENDA CASAS ALEMAN (4793),PAX81590,118298,TOMADA POR USUARIO,01/04/2020,12:57:25,1154776,19.475801,-99.084592,200300661,13/04/2020,1
1,Sin Terminar,Centro Oriente,Centro Oriente 1,DISTRITO FEDERAL,GUSTAVO A. MADERO,200300654,24/04/2020,Durante ABRIL recorre los pasillos de un Minisuper y gana dinero,1088,1088 - Tienda Neto-Lerdo De Tejada,PAX117087,12136,TOMADA POR USUARIO,01/04/2020,13:33:35,1151826,19.560694,-99.13376,200300654,24/04/2020,1
1,Sin Terminar,Centro Oriente,Centro Oriente 1,DISTRITO FEDERAL,GUSTAVO A. MADERO,200300654,24/04/2020,Durante ABRIL recorre los pasillos de un Minisuper y gana dinero,1467,1467 - Tienda Neto-San Felipe De Jes�s 2,PAX108918,18355,TOMADA POR USUARIO,01/04/2020,13:03:05,1151892,19.49175,-99.07372,200300654,24/04/2020,1
1,Sin Terminar,Centro Oriente,Centro Oriente 1,DISTRITO FEDERAL,GUSTAVO A. MADERO,200300654,24/04/2020,Durante ABRIL recorre los pasillos de un Minisuper y gana dinero,1564,1564 - Tienda Neto-Cerro del Cubilete,PAX115469,12178,TOMADA POR USUARIO,01/04/2020,13:11:00,1151908,19.472214,-99.067701,200300654,24/04/2020,1
1,Sin Terminar,Centro Oriente,Centro Oriente 1,DISTRITO FEDERAL,GUSTAVO A. MADERO,200300654,24/04/2020,Durante ABRIL recorre los pasillos de un Minisuper y gana dinero,1614,1614 - Tienda Neto-Campestre Aragon,PAX108918,11480,TOMADA POR USUARIO,01/04/2020,13:02:44,1151919,19.486551,-99.075584,200300654,24/04/2020,1
1,Sin Terminar,Centro Oriente,Centro Oriente 1,DISTRITO FEDERAL,GUSTAVO A. MADERO,200300654,24/04/2020,Durante ABRIL recorre los pasillos de un Minisuper y gana dinero,1618,1618 - Tienda Neto-Zona Escolar,PAX117168,18725,TOMADA POR USUARIO,01/04/2020,13:20:23,1151920,19.542884,-99.152149,200300654,24/04/2020,1
1,Sin Terminar,Centro Oriente,Centro Oriente 1,DISTRITO FEDERAL,GUSTAVO A. MADERO,200300654,24/04/2020,Durante ABRIL recorre los pasillos de un Minisuper y gana dinero,2971,2971 - Tienda Neto-25 De Julio,PAX85839,12338,TOMADA POR USUARIO,01/04/2020,12:58:56,1152069,19.494931,-99.080066,200300654,24/04/2020,1
1,Sin Terminar,Centro Oriente,Centro Oriente 1,DISTRITO FEDERAL,GUSTAVO A. MADERO,200300654,24/04/2020,Durante ABRIL recorre los pasillos de un Minisuper y gana dinero,2984,2984 - Tienda Neto-Industrial,PAX56747,11655,TOMADA POR USUARIO,01/04/2020,12:57:45,1152080,19.477234,-99.1248,200300654,24/04/2020,1
1,Sin Terminar,Centro Oriente,Centro Oriente 1,DISTRITO FEDERAL,GUSTAVO A. MADERO,200300654,24/04/2020,Durante ABRIL recorre los pasillos de un Minisuper y gana dinero,2988,2988 - Tienda Neto-Vicente Guerrero,PAX108918,12144,TOMADA POR USUARIO,01/04/2020,13:04:09,1152083,19.488493,-99.1075,200300654,24/04/2020,1
1,Sin Terminar,Centro Oriente,Centro Oriente 1,DISTRITO FEDERAL,GUSTAVO A. MADERO,200300654,24/04/2020,Durante ABRIL recorre los pasillos de un Minisuper y gana dinero,3457,3457 - Tienda Neto-Rep�blica,PAX115469,18341,TOMADA POR USUARIO,01/04/2020,13:10:20,1152125,19.480521,-99.065911,200300654,24/04/2020,1
1,Sin Terminar,Centro Oriente,Centro Oriente 1,DISTRITO FEDERAL,GUSTAVO A. MADERO,200300654,24/04/2020,Durante ABRIL recorre los pasillos de un Minisuper y gana dinero,354,SP FORESTAL (354),PAX108778,170217,TOMADA POR USUARIO,01/04/2020,15:56:10,1154847,19.56374,-99.127716,200300654,24/04/2020,1
1,Sin Terminar,Centro Oriente,Centro Oriente 1,DISTRITO FEDERAL,GUSTAVO A. MADERO,200300654,24/04/2020,Durante ABRIL recorre los pasillos de un Minisuper y gana dinero,3717,3717 - Tienda Neto-San Felipe de Jes�s 1,PAX85839,14534,TOMADA POR USUARIO,01/04/2020,12:59:33,1152205,19.492271,-99.07439,200300654,24/04/2020,1
1,Sin Terminar,Centro Oriente,Centro Oriente 1,DISTRITO FEDERAL,GUSTAVO A. MADERO,200300654,24/04/2020,Durante ABRIL recorre los pasillos de un Minisuper y gana dinero,3799,3799 - Tienda Neto-Martin Carrera,PAX108918,14548,TOMADA POR USUARIO,01/04/2020,13:03:37,1152225,19.48913,-99.105644,200300654,24/04/2020,1
1,Sin Terminar,Centro Oriente,Centro Oriente 1,DISTRITO FEDERAL,GUSTAVO A. MADERO,200300654,24/04/2020,Durante ABRIL recorre los pasillos de un Minisuper y gana dinero,3819,3819 - Tienda Neto-Ticoman,PAX117168,14572,TOMADA POR USUARIO,01/04/2020,13:19:02,1152241,19.515954,-99.131814,200300654,24/04/2020,1
1,Sin Terminar,Centro Oriente,Centro Oriente 1,DISTRITO FEDERAL,GUSTAVO A. MADERO,200300654,24/04/2020,Durante ABRIL recorre los pasillos de un Minisuper y gana dinero,3833,3833 - Tienda Neto-Calle 16,PAX115469,14560,TOMADA POR USUARIO,01/04/2020,13:12:54,1152249,19.51892,-99.157845,200300654,24/04/2020,1
1,Sin Terminar,Centro Oriente,Centro Oriente 1,DISTRITO FEDERAL,GUSTAVO A. MADERO,200300654,24/04/2020,Durante ABRIL recorre los pasillos de un Minisuper y gana dinero,405,Nueva Atzacoalco_Neto,PAX85839,173542,TOMADA POR USUARIO,01/04/2020,12:57:23,1152297,19.50114,-99.086365,200300654,24/04/2020,1
1,Sin Terminar,Centro Oriente,Centro Oriente 1,DISTRITO FEDERAL,GUSTAVO A. MADERO,200300654,24/04/2020,Durante ABRIL recorre los pasillos de un Minisuper y gana dinero,433,Ezequiel Cuautepec,PAX117168,176025,TOMADA POR USUARIO,01/04/2020,13:20:09,1152324,19.541635,-99.13912,200300654,24/04/2020,1
1,Sin Terminar,Centro Oriente,Centro Oriente 1,DISTRITO FEDERAL,GUSTAVO A. MADERO,200300654,24/04/2020,Durante ABRIL recorre los pasillos de un Minisuper y gana dinero,458,SP GABRIEL HERNANDEZ (458),PAX85839,124506,TOMADA POR USUARIO,01/04/2020,12:58:14,1152756,19.500486,-99.09622,200300654,24/04/2020,1
1,Sin Terminar,Centro Oriente,Centro Oriente 1,DISTRITO FEDERAL,GUSTAVO A. MADERO,200300654,24/04/2020,Durante ABRIL recorre los pasillos de un Minisuper y gana dinero,7256,7256 - Tienda Neto-Sebastian Aparicio,PAX85839,18374,TOMADA POR USUARIO,01/04/2020,12:57:44,1152472,19.494604,-99.09612,200300654,24/04/2020,1
1,Sin Terminar,Centro Oriente,Centro Oriente 1,DISTRITO FEDERAL,GUSTAVO A. MADERO,200300654,24/04/2020,Durante ABRIL recorre los pasillos de un Minisuper y gana dinero,7271,7271 - Tienda Neto-Henry Ford,PAX56747,11648,TOMADA POR USUARIO,01/04/2020,12:59:03,1152476,19.463358,-99.099966,200300654,24/04/2020,1
1,Sin Terminar,Centro Oriente,Centro Oriente 1,DISTRITO FEDERAL,GUSTAVO A. MADERO,200300654,24/04/2020,Durante ABRIL recorre los pasillos de un Minisuper y gana dinero,8972,SP PROGRESO MERCADO (8972),PAX74666,170944,TOMADA POR USUARIO,01/04/2020,13:16:26,1152777,19.521002,-99.15866,200300654,24/04/2020,1
1,Sin Terminar,Centro Oriente,Centro Oriente 1,DISTRITO FEDERAL,GUSTAVO A. MADERO,200300654,24/04/2020,Durante ABRIL recorre los pasillos de un Minisuper y gana dinero,921,921 - Tienda Neto-Panamericana,PAX93963,12166,TOMADA POR USUARIO,01/04/2020,13:15:37,1152656,19.476882,-99.145137,200300654,24/04/2020,1
1,Sin Terminar,Centro Oriente,Centro Oriente 1,DISTRITO FEDERAL,GUSTAVO A. MADERO,200300654,24/04/2020,Durante ABRIL recorre los pasillos de un Minisuper y gana dinero,926,926 - Tienda Neto-Agustin Lara,PAX108778,11448,TOMADA POR USUARIO,01/04/2020,16:01:20,1154855,19.561157,-99.13975,200300654,24/04/2020,1
1,Sin Terminar,Centro Oriente,Centro Oriente 1,DISTRITO FEDERAL,GUSTAVO A. MADERO,200300661,24/04/2020,En abril descubre cuánto vale tu prenda de oro,1643,BA MEGA METRO LA RAZA (1643),PAX57800,120939,TOMADA POR USUARIO,01/04/2020,12:50:42,1153200,19.469131,-99.140359,200300661,24/04/2020,1
1,Sin Terminar,Centro Oriente,Centro Oriente 1,DISTRITO FEDERAL,GUSTAVO A. MADERO,200300661,24/04/2020,En abril descubre cuánto vale tu prenda de oro,301,BA EKT INGUARAN (301),PAX82896,120945,TOMADA POR USUARIO,01/04/2020,12:50:52,1153339,19.462724,-99.112934,200300661,24/04/2020,1
1,Sin Terminar,Centro Oriente,Centro Oriente 1,DISTRITO FEDERAL,GUSTAVO A. MADERO,200300661,13/04/2020,En abril descubre cuánto vale tu prenda de oro CDMX,4711,BA PRESTA PRENDA ZACATECAS DF (4711),PAX65362,118354,TOMADA POR USUARIO,01/04/2020,12:52:29,1154771,19.483067,-99.07099,200300661,13/04/2020,1
1,Sin Terminar,Centro Oriente,Centro Oriente 1,DISTRITO FEDERAL,GUSTAVO A. MADERO,200300661,13/04/2020,En abril descubre cuánto vale tu prenda de oro CDMX,5937,BA MEGA PLAZA ORIENTE (5937),PAX82896,119400,TOMADA POR USUARIO,01/04/2020,12:49:55,1153148,19.484647,-99.094673,200300661,13/04/2020,1
1,Sin Terminar,Centro Oriente,Centro Oriente 1,DISTRITO FEDERAL,GUSTAVO A. MADERO,200300661,13/04/2020,En abril descubre cuánto vale tu prenda de oro CDMX,9563,BA MEGA LORETO FABELA,PAX65362,174327,TOMADA POR USUARIO,01/04/2020,12:52:10,1154773,19.473084,-99.079851,200300661,13/04/2020,1
2,Sin Terminar,Centro Oriente,Centro Oriente 1,DISTRITO FEDERAL,GUSTAVO A. MADERO,-,-,En Abril Upaxer te regala gasolina 2020,11,E00073_BP Arcos,PAX77611,159164,TOMADA POR USUARIO,01/04/2020,17:58:42,1154147,19.472822,-99.142746,-,-,1
1,Sin Terminar,Centro Oriente,Centro Oriente 1,DISTRITO FEDERAL,GUSTAVO A. MADERO,200100123,05/04/2020,Gana dinero pidiendo información de un producto del banco_1,2026,BA EKT CASAS ALEMAN BARRA DE NAUTLA,PAX65362,69867,TOMADA POR USUARIO,01/04/2020,12:48:13,1154768,19.476099,-99.081925,200100123,05/04/2020,1
1,Sin Terminar,Centro Oriente,Centro Oriente 1,DISTRITO FEDERAL,IZTACALCO,200300654,24/04/2020,Durante ABRIL recorre los pasillos de un Minisuper y gana dinero,2980,2980 - Tienda Neto-Sur 115,PAX13890,11666,TOMADA POR USUARIO,01/04/2020,13:16:42,1152078,19.393902,-99.10661,200300654,24/04/2020,1
1,Sin Terminar,Centro Oriente,Centro Oriente 1,DISTRITO FEDERAL,IZTACALCO,200300654,24/04/2020,Durante ABRIL recorre los pasillos de un Minisuper y gana dinero,2981,2981 - Tienda Neto-Pantitlan,PAX107483,12167,TOMADA POR USUARIO,01/04/2020,13:15:21,1152079,19.41282,-99.06265,200300654,24/04/2020,1
1,Sin Terminar,Centro Oriente,Centro Oriente 1,DISTRITO FEDERAL,IZTACALCO,200300654,24/04/2020,Durante ABRIL recorre los pasillos de un Minisuper y gana dinero,3442,3442 - Tienda Neto-Apatlaco,PAX107520,11457,TOMADA POR USUARIO,01/04/2020,13:15:03,1152120,19.381994,-99.11442,200300654,24/04/2020,1
1,Sin Terminar,Centro Oriente,Centro Oriente 1,DISTRITO FEDERAL,IZTACALCO,200300654,24/04/2020,Durante ABRIL recorre los pasillos de un Minisuper y gana dinero,3837,3837 - Tienda Neto-Santiago,PAX13890,14568,TOMADA POR USUARIO,01/04/2020,13:16:20,1152253,19.390797,-99.12807,200300654,24/04/2020,1
1,Sin Terminar,Centro Oriente,Centro Oriente 1,DISTRITO FEDERAL,IZTACALCO,200300654,24/04/2020,Durante ABRIL recorre los pasillos de un Minisuper y gana dinero,4435,4435 - Tienda Neto-Sur 20,PAX71343,18523,TOMADA POR USUARIO,01/04/2020,13:07:59,1152341,19.390253,-99.06134,200300654,24/04/2020,1
1,Sin Terminar,Centro Oriente,Centro Oriente 1,DISTRITO FEDERAL,IZTACALCO,200300654,24/04/2020,Durante ABRIL recorre los pasillos de un Minisuper y gana dinero,4497,4497 - Tienda Neto-Agricola Oriental,PAX107520,11446,TOMADA POR USUARIO,01/04/2020,13:16:13,1152355,19.396942,-99.06229,200300654,24/04/2020,1
1,Sin Terminar,Centro Oriente,Centro Oriente 1,DISTRITO FEDERAL,IZTACALCO,200300654,24/04/2020,Durante ABRIL recorre los pasillos de un Minisuper y gana dinero,8954,8954 - Tienda neto - Agricola mercado,PAX13890,60074,TOMADA POR USUARIO,01/04/2020,13:17:08,1152545,19.395267,-99.0759,200300654,24/04/2020,1
1,Sin Terminar,Centro Oriente,Centro Oriente 1,DISTRITO FEDERAL,IZTACALCO,200300661,24/04/2020,En abril descubre cuánto vale tu prenda de oro,2740,BA PRESTA PRENDA IZTACALCO LA ASUNCION (2740),PAX115678,121320,TOMADA POR USUARIO,01/04/2020,12:57:44,1153811,19.390026,-99.121628,200300661,24/04/2020,1
1,Sin Terminar,Centro Oriente,Centro Oriente 1,DISTRITO FEDERAL,IZTACALCO,200300661,24/04/2020,En abril descubre cuánto vale tu prenda de oro,9800,BA MEGA PLAZA CHURUBUSCO (9800),PAX47686,121234,TOMADA POR USUARIO,02/04/2020,03:26:34,1154965,19.38149,-99.101428,200300661,24/04/2020,0
2,Sin Terminar,Centro Oriente,Centro Oriente 1,DISTRITO FEDERAL,IZTACALCO,-,-,En Abril Upaxer te regala gasolina 2020,216,E02878_BP Sur 12,PAX57575,159264,TOMADA POR USUARIO,01/04/2020,14:29:25,1154259,19.397041,-99.072987,-,-,1
1,Sin Terminar,Centro Oriente,Centro Oriente 1,DISTRITO FEDERAL,IZTACALCO,200100125,05/04/2020,Haz un trámite en la caja del banco y gana dinero_1,1481,BA EKT MERCADO PANTITLAN,PAX57248,69546,TOMADA POR USUARIO,01/04/2020,19:24:00,1154908,19.399833,-99.05838,200100125,05/04/2020,1
1,Sin Terminar,Centro Oriente,Centro Oriente 1,DISTRITO FEDERAL,IZTAPALAPA,200300654,24/04/2020,Durante ABRIL recorre los pasillos de un Minisuper y gana dinero,1146,Tienda Neto - Chimalpopoca,PAX108860,11983,TOMADA POR USUARIO,01/04/2020,13:09:57,1151846,19.301138,-99.07103,200300654,24/04/2020,1
1,Sin Terminar,Centro Oriente,Centro Oriente 1,DISTRITO FEDERAL,IZTAPALAPA,200300654,24/04/2020,Durante ABRIL recorre los pasillos de un Minisuper y gana dinero,1149,1149 - Tienda Neto-Bilbao,PAX82736,11475,TOMADA POR USUARIO,01/04/2020,13:07:57,1151849,19.329782,-99.08258,200300654,24/04/2020,1
1,Sin Terminar,Centro Oriente,Centro Oriente 1,DISTRITO FEDERAL,IZTAPALAPA,200300654,24/04/2020,Durante ABRIL recorre los pasillos de un Minisuper y gana dinero,1163,1163 - Tienda Neto-Clemente Orozco,PAX108860,11992,TOMADA POR USUARIO,01/04/2020,13:10:20,1151855,19.305198,-99.078501,200300654,24/04/2020,1
1,Sin Terminar,Centro Oriente,Centro Oriente 1,DISTRITO FEDERAL,IZTAPALAPA,200300654,24/04/2020,Durante ABRIL recorre los pasillos de un Minisuper y gana dinero,2763,2763 - Tienda Neto-Villa Braz,PAX108781,18711,TOMADA POR USUARIO,01/04/2020,13:13:38,1154786,19.331008,-99.042575,200300654,24/04/2020,1
1,Sin Terminar,Centro Oriente,Centro Oriente 1,DISTRITO FEDERAL,IZTAPALAPA,200300654,24/04/2020,Durante ABRIL recorre los pasillos de un Minisuper y gana dinero,2795,2795 - Tienda Neto-Tecoloxtilta,PAX118738,18532,TOMADA POR USUARIO,01/04/2020,12:58:48,1152003,19.360446,-99.016689,200300654,24/04/2020,1
1,Sin Terminar,Centro Oriente,Centro Oriente 1,DISTRITO FEDERAL,IZTAPALAPA,200300654,24/04/2020,Durante ABRIL recorre los pasillos de un Minisuper y gana dinero,2798,2798 - Tienda Neto-Villa Mayo,PAX2538,18713,TOMADA POR USUARIO,02/04/2020,01:29:32,1154964,19.330986,-99.037026,200300654,24/04/2020,0
1,Sin Terminar,Centro Oriente,Centro Oriente 1,DISTRITO FEDERAL,IZTAPALAPA,200300654,24/04/2020,Durante ABRIL recorre los pasillos de un Minisuper y gana dinero,2871,2871 - Tienda Neto-Reforma Politica,PAX118738,18338,TOMADA POR USUARIO,01/04/2020,13:12:26,1152041,19.336617,-99.03261,200300654,24/04/2020,1
1,Sin Terminar,Centro Oriente,Centro Oriente 1,DISTRITO FEDERAL,IZTAPALAPA,200300654,24/04/2020,Durante ABRIL recorre los pasillos de un Minisuper y gana dinero,2987,2987 - Tienda Neto-San Juan,PAX101747,18359,TOMADA POR USUARIO,01/04/2020,13:19:48,1152082,19.40109,-99.058136,200300654,24/04/2020,1
1,Sin Terminar,Centro Oriente,Centro Oriente 1,DISTRITO FEDERAL,IZTAPALAPA,200300654,24/04/2020,Durante ABRIL recorre los pasillos de un Minisuper y gana dinero,317,SP MAURILIO MEJIA (317),PAX2538,168323,TOMADA POR USUARIO,02/04/2020,01:15:23,1154963,19.341883,-99.04519,200300654,24/04/2020,0
1,Sin Terminar,Centro Oriente,Centro Oriente 1,DISTRITO FEDERAL,IZTAPALAPA,200300654,24/04/2020,Durante ABRIL recorre los pasillos de un Minisuper y gana dinero,3516,3516 - Tienda Neto-Culhuacan,PAX82736,12333,TOMADA POR USUARIO,01/04/2020,13:06:21,1152140,19.338387,-99.10657,200300654,24/04/2020,1
1,Sin Terminar,Centro Oriente,Centro Oriente 1,DISTRITO FEDERAL,IZTAPALAPA,200300654,24/04/2020,Durante ABRIL recorre los pasillos de un Minisuper y gana dinero,3524,3524 - Tienda Neto-Acahualtepec Sauce,PAX97443,16168,TOMADA POR USUARIO,01/04/2020,13:08:08,1152145,19.345,-99.0083,200300654,24/04/2020,1
1,Sin Terminar,Centro Oriente,Centro Oriente 1,DISTRITO FEDERAL,IZTAPALAPA,200300654,24/04/2020,Durante ABRIL recorre los pasillos de un Minisuper y gana dinero,3798,3798 - Tienda Neto-Insurgentes,PAX108781,14547,TOMADA POR USUARIO,01/04/2020,13:14:14,1152224,19.330571,-99.05269,200300654,24/04/2020,1
1,Sin Terminar,Centro Oriente,Centro Oriente 1,DISTRITO FEDERAL,IZTAPALAPA,200300654,24/04/2020,Durante ABRIL recorre los pasillos de un Minisuper y gana dinero,3800,3800 - Tienda Neto-Jacarandas,PAX108780,14550,TOMADA POR USUARIO,01/04/2020,13:12:08,1152227,19.350676,-99.051639,200300654,24/04/2020,1
1,Sin Terminar,Centro Oriente,Centro Oriente 1,DISTRITO FEDERAL,IZTAPALAPA,200300654,24/04/2020,Durante ABRIL recorre los pasillos de un Minisuper y gana dinero,3810,3810 - Tienda Neto-Escuadron 201,PAX82736,16172,TOMADA POR USUARIO,01/04/2020,13:07:13,1152234,19.361053,-99.11417,200300654,24/04/2020,1
1,Sin Terminar,Centro Oriente,Centro Oriente 1,DISTRITO FEDERAL,IZTAPALAPA,200300654,24/04/2020,Durante ABRIL recorre los pasillos de un Minisuper y gana dinero,3811,3811 - Tienda Neto-Calle 3,PAX108780,14557,TOMADA POR USUARIO,01/04/2020,13:14:18,1152235,19.319647,-99.05985,200300654,24/04/2020,1
1,Sin Terminar,Centro Oriente,Centro Oriente 1,DISTRITO FEDERAL,IZTAPALAPA,200300654,24/04/2020,Durante ABRIL recorre los pasillos de un Minisuper y gana dinero,3817,3817 - Tienda Neto-Ejercito de Oriente,PAX107520,14558,TOMADA POR USUARIO,01/04/2020,13:15:25,1152239,19.37826,-99.03605,200300654,24/04/2020,1
1,Sin Terminar,Centro Oriente,Centro Oriente 1,DISTRITO FEDERAL,IZTAPALAPA,200300654,24/04/2020,Durante ABRIL recorre los pasillos de un Minisuper y gana dinero,3902,3902 - Tienda Neto-San Miguel Teotongo,PAX97443,11813,TOMADA POR USUARIO,01/04/2020,13:05:35,1152273,19.342257,-98.98931,200300654,24/04/2020,1
1,Sin Terminar,Centro Oriente,Centro Oriente 1,DISTRITO FEDERAL,IZTAPALAPA,200300654,24/04/2020,Durante ABRIL recorre los pasillos de un Minisuper y gana dinero,3903,3903 - Tienda Neto-Santa Maria Aztahuacan,PAX118738,11810,TOMADA POR USUARIO,01/04/2020,12:58:09,1152274,19.357389,-99.0224,200300654,24/04/2020,1
1,Sin Terminar,Centro Oriente,Centro Oriente 1,DISTRITO FEDERAL,IZTAPALAPA,200300654,24/04/2020,Durante ABRIL recorre los pasillos de un Minisuper y gana dinero,3941,3941 - Tienda Neto-Fuego Nuevo,PAX108780,11830,TOMADA POR USUARIO,01/04/2020,13:13:00,1152288,19.33226,-99.097084,200300654,24/04/2020,1
1,Sin Terminar,Centro Oriente,Centro Oriente 1,DISTRITO FEDERAL,IZTAPALAPA,200300654,24/04/2020,Durante ABRIL recorre los pasillos de un Minisuper y gana dinero,3943,3943 - Tienda Neto-Justo Sierra,PAX97443,11824,TOMADA POR USUARIO,01/04/2020,13:09:03,1152289,19.348242,-99.02962,200300654,24/04/2020,1
1,Sin Terminar,Centro Oriente,Centro Oriente 1,DISTRITO FEDERAL,IZTAPALAPA,200300654,24/04/2020,Durante ABRIL recorre los pasillos de un Minisuper y gana dinero,404,Minas Xalpa,PAX101747,176020,TOMADA POR USUARIO,01/04/2020,13:18:39,1152296,19.336357,-99.018864,200300654,24/04/2020,1
1,Sin Terminar,Centro Oriente,Centro Oriente 1,DISTRITO FEDERAL,IZTAPALAPA,200300654,24/04/2020,Durante ABRIL recorre los pasillos de un Minisuper y gana dinero,422,Tepalcates,PAX59312,174291,TOMADA POR USUARIO,01/04/2020,19:59:46,1154915,19.385653,-99.051585,200300654,24/04/2020,1
1,Sin Terminar,Centro Oriente,Centro Oriente 1,DISTRITO FEDERAL,IZTAPALAPA,200300654,24/04/2020,Durante ABRIL recorre los pasillos de un Minisuper y gana dinero,4432,4432 - Tienda Neto-Canal De Garay,PAX20264,11481,TOMADA POR USUARIO,01/04/2020,13:10:34,1152340,19.338205,-99.0652,200300654,24/04/2020,1
1,Sin Terminar,Centro Oriente,Centro Oriente 1,DISTRITO FEDERAL,IZTAPALAPA,200300654,24/04/2020,Durante ABRIL recorre los pasillos de un Minisuper y gana dinero,448,Dr. Andrade,PAX108860,179052,TOMADA POR USUARIO,01/04/2020,13:11:58,1152351,19.411929,-99.147181,200300654,24/04/2020,1
1,Sin Terminar,Centro Oriente,Centro Oriente 1,DISTRITO FEDERAL,IZTAPALAPA,200300654,24/04/2020,Durante ABRIL recorre los pasillos de un Minisuper y gana dinero,4565,4565 - Tienda Neto-El Eden,PAX118738,12016,TOMADA POR USUARIO,01/04/2020,13:02:11,1152377,19.363129,-99.01801,200300654,24/04/2020,1
1,Sin Terminar,Centro Oriente,Centro Oriente 1,DISTRITO FEDERAL,IZTAPALAPA,200300654,24/04/2020,Durante ABRIL recorre los pasillos de un Minisuper y gana dinero,477,SP PUENTE BLANCO (477),PAX107520,158359,TOMADA POR USUARIO,01/04/2020,13:16:08,1152769,19.325512,-99.06244,200300654,24/04/2020,1
1,Sin Terminar,Centro Oriente,Centro Oriente 1,DISTRITO FEDERAL,IZTAPALAPA,200300654,24/04/2020,Durante ABRIL recorre los pasillos de un Minisuper y gana dinero,7189,7189 - Tienda Neto-Porfirio Diaz,PAX97443,12177,TOMADA POR USUARIO,01/04/2020,13:04:58,1152438,19.361212,-99.009409,200300654,24/04/2020,1
1,Sin Terminar,Centro Oriente,Centro Oriente 1,DISTRITO FEDERAL,IZTAPALAPA,200300654,24/04/2020,Durante ABRIL recorre los pasillos de un Minisuper y gana dinero,7270,7270 - Tienda Neto-Los Angeles,PAX108780,11636,TOMADA POR USUARIO,01/04/2020,13:11:44,1152475,19.340307,-99.059692,200300654,24/04/2020,1
1,Sin Terminar,Centro Oriente,Centro Oriente 1,DISTRITO FEDERAL,IZTAPALAPA,200300654,24/04/2020,Durante ABRIL recorre los pasillos de un Minisuper y gana dinero,902,902 - Tienda Neto-Tezontle,PAX59312,18543,TOMADA POR USUARIO,01/04/2020,19:50:34,1154914,19.385036,-99.095634,200300654,24/04/2020,1
1,Sin Terminar,Centro Oriente,Centro Oriente 1,DISTRITO FEDERAL,IZTAPALAPA,200300661,24/04/2020,En abril descubre cuánto vale tu prenda de oro,2123,PRESTA PRENDA IZTAPALAPA XALPA (2123),PAX20264,121826,TOMADA POR USUARIO,01/04/2020,13:03:48,1153789,19.345917,-99.020542,200300661,24/04/2020,1
1,Sin Terminar,Centro Oriente,Centro Oriente 1,DISTRITO FEDERAL,IZTAPALAPA,200300661,24/04/2020,En abril descubre cuánto vale tu prenda de oro,2163,BA MEGA SANTA MARTHA (2163),PAX2538,120842,TOMADA POR USUARIO,02/04/2020,00:52:27,1154960,19.362381,-99.003536,200300661,24/04/2020,0
1,Sin Terminar,Centro Oriente,Centro Oriente 1,DISTRITO FEDERAL,IZTAPALAPA,200300661,24/04/2020,En abril descubre cuánto vale tu prenda de oro,2396,BA MEGA IZTAPALAPA SAN PABLO (2396),PAX47686,119040,TOMADA POR USUARIO,02/04/2020,03:28:06,1154967,19.358583,-99.089082,200300661,24/04/2020,0
1,Sin Terminar,Centro Oriente,Centro Oriente 1,DISTRITO FEDERAL,IZTAPALAPA,200300661,24/04/2020,En abril descubre cuánto vale tu prenda de oro,2545,BA MEGA METRO LA PURISIMA (2545),PAX47686,119146,TOMADA POR USUARIO,02/04/2020,03:28:38,1154968,19.351016,-99.073801,200300661,24/04/2020,0
1,Sin Terminar,Centro Oriente,Centro Oriente 1,DISTRITO FEDERAL,IZTAPALAPA,200300661,24/04/2020,En abril descubre cuánto vale tu prenda de oro,3625,BA MEGA CARCEL DE MUJERES (3625),PAX2538,120845,TOMADA POR USUARIO,02/04/2020,00:51:37,1154959,19.358156,-99.0015,200300661,24/04/2020,0
1,Sin Terminar,Centro Oriente,Centro Oriente 1,DISTRITO FEDERAL,IZTAPALAPA,200300661,24/04/2020,En abril descubre cuánto vale tu prenda de oro,3793,BA MEGA TINACOS (3793),PAX20264,119050,TOMADA POR USUARIO,01/04/2020,13:03:09,1153365,19.344366,-99.032039,200300661,24/04/2020,1
1,Sin Terminar,Centro Oriente,Centro Oriente 1,DISTRITO FEDERAL,IZTAPALAPA,200300661,24/04/2020,En abril descubre cuánto vale tu prenda de oro,4747,BA EKT APATLACO (4747),PAX115678,119048,TOMADA POR USUARIO,01/04/2020,12:57:21,1153414,19.382041,-99.118734,200300661,24/04/2020,1
1,Sin Terminar,Centro Oriente,Centro Oriente 1,DISTRITO FEDERAL,IZTAPALAPA,200300661,24/04/2020,En abril descubre cuánto vale tu prenda de oro,5160,BA EKT SAN LORENZO TEZONCO (5160),PAX20264,119147,TOMADA POR USUARIO,01/04/2020,13:02:18,1153440,19.326553,-99.075397,200300661,24/04/2020,1
1,Sin Terminar,Centro Oriente,Centro Oriente 1,DISTRITO FEDERAL,IZTAPALAPA,200300661,24/04/2020,En abril descubre cuánto vale tu prenda de oro,5270,PRESTA PRENDA PEÑON (5270),PAX93808,121718,TOMADA POR USUARIO,02/04/2020,04:35:28,1154971,19.372639,-99.017265,200300661,24/04/2020,0
1,Sin Terminar,Centro Oriente,Centro Oriente 1,DISTRITO FEDERAL,IZTAPALAPA,200300661,24/04/2020,En abril descubre cuánto vale tu prenda de oro,5924,BA MEGA PLAZA EL SALADO (5924),PAX2538,120841,TOMADA POR USUARIO,02/04/2020,00:50:30,1154958,19.367556,-99.00565,200300661,24/04/2020,0
1,Sin Terminar,Centro Oriente,Centro Oriente 1,DISTRITO FEDERAL,IZTAPALAPA,200300661,24/04/2020,En abril descubre cuánto vale tu prenda de oro,903,BA EKT ERMITA 1 LA VIGA (903),PAX108782,119043,TOMADA POR USUARIO,01/04/2020,12:55:46,1153629,19.358111,-99.122168,200300661,24/04/2020,1
1,Sin Terminar,Centro Oriente,Centro Oriente 1,DISTRITO FEDERAL,IZTAPALAPA,200300661,24/04/2020,En abril descubre cuánto vale tu prenda de oro,9947,BA MEGA PLAZA CENTRAL CHURUBUSCO (9947),PAX47686,121355,TOMADA POR USUARIO,02/04/2020,03:27:19,1154966,19.377445,-99.096489,200300661,24/04/2020,0
1,Sin Terminar,Centro Oriente,Centro Oriente 1,DISTRITO FEDERAL,IZTAPALAPA,200100123,05/04/2020,Gana dinero pidiendo información de un crédito del banco_1,2123,BA EKT IZTAPALAPA XALPA,PAX122018,69538,TOMADA POR USUARIO,01/04/2020,15:11:37,1154837,19.345917,-99.020542,200100123,05/04/2020,1
1,Sin Terminar,Centro Oriente,Centro Oriente 1,DISTRITO FEDERAL,IZTAPALAPA,200100123,05/04/2020,Gana dinero pidiendo información de un producto del banco_1,6144,BA EKT IZTAPALAPA DEL ROSAL,PAX1798,69967,TOMADA POR USUARIO,31/03/2020,15:50:30,1154648,19.345833,-99.07189,200100123,05/04/2020,2
1,Sin Terminar,Centro Oriente,Centro Oriente 1,DISTRITO FEDERAL,IZTAPALAPA,200100125,05/04/2020,Haz un trámite en la caja del banco y gana dinero_1,4747,BA EKT APATLACO,PAX122028,69551,TOMADA POR USUARIO,01/04/2020,19:32:15,1154909,19.381548,-99.12015,200100125,05/04/2020,1
1,Sin Terminar,Centro Poniente,Centro Poniente 2,DISTRITO FEDERAL,MAGDALENA CONTRERAS LA,200300654,24/04/2020,Durante ABRIL recorre los pasillos de un Minisuper y gana dinero,2789,2789 - Tienda Neto-Cruz Verde,jroman,12006,ASIGNADA POR SISTEMA,31/03/2020,12:58:39,1151999,19.321632,-99.24599,200300654,24/04/2020,2
1,Sin Terminar,Centro Poniente,Centro Poniente 2,DISTRITO FEDERAL,MAGDALENA CONTRERAS LA,200300654,24/04/2020,Durante ABRIL recorre los pasillos de un Minisuper y gana dinero,2978,2978 - Tienda Neto-San Bernabe,jroman,18353,ASIGNADA POR SISTEMA,31/03/2020,12:58:39,1152075,19.316671,-99.25663,200300654,24/04/2020,2
1,Sin Terminar,Centro Poniente,Centro Poniente 2,DISTRITO FEDERAL,MAGDALENA CONTRERAS LA,200300654,24/04/2020,Durante ABRIL recorre los pasillos de un Minisuper y gana dinero,3445,3445 - Tienda Neto-Contreras,jroman,11999,ASIGNADA POR SISTEMA,31/03/2020,12:58:39,1152121,19.308113,-99.232574,200300654,24/04/2020,2
1,Sin Terminar,Centro Poniente,Centro Poniente 2,DISTRITO FEDERAL,MAGDALENA CONTRERAS LA,200300654,24/04/2020,Durante ABRIL recorre los pasillos de un Minisuper y gana dinero,432,Guerrero 2,jroman,174284,ASIGNADA POR SISTEMA,31/03/2020,12:58:39,1152323,19.313522,-99.258736,200300654,24/04/2020,2
1,Sin Terminar,Centro Poniente,Centro Poniente 2,DISTRITO FEDERAL,MAGDALENA CONTRERAS LA,200300654,24/04/2020,Durante ABRIL recorre los pasillos de un Minisuper y gana dinero,7239,7239 - Puente del Rosal,jroman,24705,ASIGNADA POR SISTEMA,31/03/2020,12:58:39,1152466,19.30554,-99.25038,200300654,24/04/2020,2
1,Sin Terminar,Centro Poniente,Centro Poniente 2,DISTRITO FEDERAL,MAGDALENA CONTRERAS LA,200300654,24/04/2020,Durante ABRIL recorre los pasillos de un Minisuper y gana dinero,9100,SP BARROS (9100),jroman,157199,ASIGNADA POR SISTEMA,31/03/2020,12:58:39,1152783,19.321756,-99.24602,200300654,24/04/2020,2
1,Sin Terminar,Centro Poniente,Centro Poniente 2,DISTRITO FEDERAL,MAGDALENA CONTRERAS LA,200300654,24/04/2020,Durante ABRIL recorre los pasillos de un Minisuper y gana dinero,914,914 - Tienda Neto-Huayatla,jroman,11651,ASIGNADA POR SISTEMA,31/03/2020,12:58:39,1152653,19.310055,-99.26245,200300654,24/04/2020,2
1,Sin Terminar,Centro Poniente,Centro Poniente 2,DISTRITO FEDERAL,MIGUEL HIDALGO,200300654,24/04/2020,Durante ABRIL recorre los pasillos de un Minisuper y gana dinero,1036,SP TACUBA (1036),PAX93959,123289,TOMADA POR USUARIO,01/04/2020,13:21:44,1152685,19.45907,-99.18645,200300654,24/04/2020,1
1,Sin Terminar,Centro Poniente,Centro Poniente 2,DISTRITO FEDERAL,MIGUEL HIDALGO,200300654,24/04/2020,Durante ABRIL recorre los pasillos de un Minisuper y gana dinero,2796,2796 - Tienda Neto-Pensil,PAX93959,12170,TOMADA POR USUARIO,01/04/2020,13:21:06,1152004,19.447075,-99.19453,200300654,24/04/2020,1
1,Sin Terminar,Centro Poniente,Centro Poniente 2,DISTRITO FEDERAL,MIGUEL HIDALGO,200300654,24/04/2020,Durante ABRIL recorre los pasillos de un Minisuper y gana dinero,2802,2802 - Tienda Neto-Laguna De Terminos,PAX108922,12133,TOMADA POR USUARIO,01/04/2020,13:21:08,1152009,19.442594,-99.174159,200300654,24/04/2020,1
1,Sin Terminar,Centro Poniente,Centro Poniente 2,DISTRITO FEDERAL,MIGUEL HIDALGO,200300654,24/04/2020,Durante ABRIL recorre los pasillos de un Minisuper y gana dinero,896,896 - Tienda Neto-Argentina,PAX108922,11462,TOMADA POR USUARIO,01/04/2020,13:22:13,1152551,19.452005,-99.201332,200300654,24/04/2020,1
1,Sin Terminar,Centro Poniente,Centro Poniente 2,DISTRITO FEDERAL,MIGUEL HIDALGO,200300661,24/04/2020,En abril descubre cuánto vale tu prenda de oro,2717,BA PRESTA PRENDA PLAZA SOTELO DF (2717),PAX101689,121427,TOMADA POR USUARIO,01/04/2020,13:04:02,1153805,19.456959,-99.214265,200300661,24/04/2020,1
1,Sin Terminar,Centro Poniente,Centro Poniente 2,DISTRITO FEDERAL,MIGUEL HIDALGO,200300661,24/04/2020,En abril descubre cuánto vale tu prenda de oro,4349,BA EKT ANAHUAC MEX TACUBA (4349),PAX59219,120861,TOMADA POR USUARIO,01/04/2020,12:52:50,1153395,19.444451,-99.167559,200300661,24/04/2020,1
1,Sin Terminar,Centro Poniente,Centro Poniente 2,DISTRITO FEDERAL,MIGUEL HIDALGO,200300661,24/04/2020,En abril descubre cuánto vale tu prenda de oro,5416,BA MEGA TACUBAYA REV (5416),PAX57800,119072,TOMADA POR USUARIO,01/04/2020,12:58:30,1153450,19.403097,-99.186471,200300661,24/04/2020,1
1,Sin Terminar,Centro Poniente,Centro Poniente 2,DISTRITO FEDERAL,MIGUEL HIDALGO,200300661,24/04/2020,En abril descubre cuánto vale tu prenda de oro,9980,BA MEGA PLAZA LEGARIA (9980),PAX59219,157324,TOMADA POR USUARIO,01/04/2020,21:01:12,1154920,19.453447,-99.19786,200300661,24/04/2020,1
2,Sin Terminar,Centro Poniente,Centro Poniente 2,DISTRITO FEDERAL,MIGUEL HIDALGO,-,-,En Abril Upaxer te regala gasolina 2020,336,E11534_BP Mariano Escobedo,PAX916,159297,TOMADA POR USUARIO,01/04/2020,17:52:53,1154371,19.443466,-99.183278,-,-,1
1,Sin Terminar,Centro Poniente,Centro Poniente 2,DISTRITO FEDERAL,MIGUEL HIDALGO,200100123,05/04/2020,Gana dinero pidiendo información de un producto del banco_1,2717,BA PRESTA PRENDA PLAZA SOTELO DF,PAX122018,70766,TOMADA POR USUARIO,01/04/2020,13:54:34,1154766,19.456959,-99.214265,200100123,05/04/2020,1
1,Sin Terminar,Centro Poniente,Centro Poniente 2,DISTRITO FEDERAL,MIGUEL HIDALGO,19030897,Indefinido,Programa de Certificación Azteca Comercializadores,,ABDITEL SA DE CV,PAX49171,181601,ASIGNADA POR SISTEMA,01/04/2020,21:51:01,1154945,19.51456,-99.239081,19030897,Indefinido,1
1,Sin Terminar,Centro Poniente,Centro Poniente 2,DISTRITO FEDERAL,MILPA ALTA,200300661,24/04/2020,En abril descubre cuánto vale tu prenda de oro,2741,BA PRESTA PRENDA DF MILPA ALTA (2741),PAX104917,121420,TOMADA POR USUARIO,01/04/2020,13:03:44,1153812,19.192438,-99.020953,200300661,24/04/2020,1
1,Sin Terminar,Centro Oriente,Centro Oriente 1,DISTRITO FEDERAL,TLAHUAC,200300687,05/04/2020,Durante Abril pregunta sobre Créditos Personales,4336,BA MEGA TLAHUAC,PAX25299,69892,ASIGNADA POR SISTEMA,31/03/2020,20:28:51,1154743,19.315742,-99.071947,200300687,05/04/2020,2
1,Sin Terminar,Centro Oriente,Centro Oriente 1,DISTRITO FEDERAL,TLAHUAC,200300654,24/04/2020,Durante ABRIL recorre los pasillos de un Minisuper y gana dinero,1108,1108 - Tienda Neto-La Estacion,jroman,11669,ASIGNADA POR SISTEMA,31/03/2020,12:58:39,1151833,19.306639,-99.04341,200300654,24/04/2020,2
1,Sin Terminar,Centro Oriente,Centro Oriente 1,DISTRITO FEDERAL,TLAHUAC,200300654,24/04/2020,Durante ABRIL recorre los pasillos de un Minisuper y gana dinero,275,Dolores Obregon,jroman,179039,ASIGNADA POR SISTEMA,31/03/2020,12:58:39,1151991,19.258745,-99.010145,200300654,24/04/2020,2
1,Sin Terminar,Centro Oriente,Centro Oriente 1,DISTRITO FEDERAL,TLAHUAC,200300654,24/04/2020,Durante ABRIL recorre los pasillos de un Minisuper y gana dinero,2873,2873 - Tienda Neto-Ernani,jroman,12018,ASIGNADA POR SISTEMA,31/03/2020,12:58:39,1152043,19.292694,-99.04701,200300654,24/04/2020,2
1,Sin Terminar,Centro Oriente,Centro Oriente 1,DISTRITO FEDERAL,TLAHUAC,200300654,24/04/2020,Durante ABRIL recorre los pasillos de un Minisuper y gana dinero,2976,2976 - Tienda Neto-Tlaltenco,jroman,18548,ASIGNADA POR SISTEMA,31/03/2020,12:58:39,1152073,19.295357,-99.01493,200300654,24/04/2020,2
1,Sin Terminar,Centro Oriente,Centro Oriente 1,DISTRITO FEDERAL,TLAHUAC,200300654,24/04/2020,Durante ABRIL recorre los pasillos de un Minisuper y gana dinero,2979,2979 - Tienda Neto-Gallo De Oro,jroman,11640,ASIGNADA POR SISTEMA,31/03/2020,12:58:39,1152076,19.297899,-99.052974,200300654,24/04/2020,2
1,Sin Terminar,Centro Oriente,Centro Oriente 1,DISTRITO FEDERAL,TLAHUAC,200300654,24/04/2020,Durante ABRIL recorre los pasillos de un Minisuper y gana dinero,368,SP LA TURBA (368),jroman,170936,ASIGNADA POR SISTEMA,31/03/2020,12:58:39,1152747,19.293333,-99.0589,200300654,24/04/2020,2
1,Sin Terminar,Centro Oriente,Centro Oriente 1,DISTRITO FEDERAL,TLAHUAC,200300654,24/04/2020,Durante ABRIL recorre los pasillos de un Minisuper y gana dinero,3716,3716 - Tienda Neto-Santa Catarina,PAX108870,14533,TOMADA POR USUARIO,01/04/2020,13:15:48,1152204,19.312107,-98.96654,200300654,24/04/2020,1
1,Sin Terminar,Centro Oriente,Centro Oriente 1,DISTRITO FEDERAL,TLAHUAC,200300654,24/04/2020,Durante ABRIL recorre los pasillos de un Minisuper y gana dinero,3820,3820 - Tienda Neto-La Conchita,jroman,14562,ASIGNADA POR SISTEMA,31/03/2020,12:49:24,1152243,19.294613,-99.036316,200300654,24/04/2020,2
1,Sin Terminar,Centro Oriente,Centro Oriente 1,DISTRITO FEDERAL,TLAHUAC,200300654,24/04/2020,Durante ABRIL recorre los pasillos de un Minisuper y gana dinero,3836,3836 - Tienda Neto-Oceano de las Tempestades,jroman,14570,ASIGNADA POR SISTEMA,31/03/2020,12:58:39,1152252,19.288786,-99.0069,200300654,24/04/2020,2
1,Sin Terminar,Centro Oriente,Centro Oriente 1,DISTRITO FEDERAL,TLAHUAC,200300654,24/04/2020,Durante ABRIL recorre los pasillos de un Minisuper y gana dinero,3910,3910 - Tienda Neto-Tlahuac Centro,jroman,18547,ASIGNADA POR SISTEMA,31/03/2020,12:58:39,1152278,19.272327,-99.00697,200300654,24/04/2020,2
1,Sin Terminar,Centro Oriente,Centro Oriente 1,DISTRITO FEDERAL,TLAHUAC,200300654,24/04/2020,Durante ABRIL recorre los pasillos de un Minisuper y gana dinero,449,Guillermo Prieto,jroman,179057,ASIGNADA POR SISTEMA,31/03/2020,12:58:39,1152354,19.285028,-99.039613,200300654,24/04/2020,2
1,Sin Terminar,Centro Oriente,Centro Oriente 1,DISTRITO FEDERAL,TLAHUAC,200300654,24/04/2020,Durante ABRIL recorre los pasillos de un Minisuper y gana dinero,4502,4502 - Tienda Neto-Zapotitlan,jroman,11668,ASIGNADA POR SISTEMA,31/03/2020,12:58:39,1152358,19.293453,-99.03634,200300654,24/04/2020,2
1,Sin Terminar,Centro Oriente,Centro Oriente 1,DISTRITO FEDERAL,TLAHUAC,200300654,24/04/2020,Durante ABRIL recorre los pasillos de un Minisuper y gana dinero,9042,9042 - Tienda Neto-Lago de Los Reyes,jroman,65236,ASIGNADA POR SISTEMA,31/03/2020,12:58:39,1152592,19.269884,-99.00454,200300654,24/04/2020,2
1,Sin Terminar,Centro Oriente,Centro Oriente 1,DISTRITO FEDERAL,TLAHUAC,200300661,24/04/2020,En abril descubre cuánto vale tu prenda de oro,2124,BA EKT TLAHUAC LOS OLIVOS (2124),PAX104917,120884,TOMADA POR USUARIO,01/04/2020,13:02:59,1153259,19.303216,-99.055537,200300661,24/04/2020,1
1,Sin Terminar,Centro Oriente,Centro Oriente 1,DISTRITO FEDERAL,TLAHUAC,200300661,24/04/2020,En abril descubre cuánto vale tu prenda de oro,4336,BA MEGA TLAHUAC (4336),PAX22775,120844,TOMADA POR USUARIO,01/04/2020,18:12:17,1154896,19.315742,-99.071947,200300661,24/04/2020,1
1,Sin Terminar,Centro Oriente,Centro Oriente 1,DISTRITO FEDERAL,TLAHUAC,200300661,24/04/2020,En abril descubre cuánto vale tu prenda de oro,9485,PRESTA PRENDA TLAHUAC PARADERO (9485),PAX93131,122423,TOMADA POR USUARIO,01/04/2020,13:12:06,1153981,19.258847,-99.010401,200300661,24/04/2020,1
1,Sin Terminar,Centro Oriente,Centro Oriente 1,DISTRITO FEDERAL,TLAHUAC,200300661,24/04/2020,En abril descubre cuánto vale tu prenda de oro,9505,BA MEGA SELENE TLAHUAC (9505),PAX22775,119922,TOMADA POR USUARIO,01/04/2020,18:08:42,1154894,19.288485,-99.006543,200300661,24/04/2020,1
1,Sin Terminar,Centro Oriente,Centro Oriente 1,DISTRITO FEDERAL,TLAHUAC,200300661,24/04/2020,En abril descubre cuánto vale tu prenda de oro,9671,BA MEGA SANTA ANA TLAHUAC (9671),PAX93131,119747,TOMADA POR USUARIO,01/04/2020,13:11:11,1153691,19.299898,-99.04312,200300661,24/04/2020,1
1,Sin Terminar,Centro Poniente,Centro Poniente 2,DISTRITO FEDERAL,TLALPAN,200300654,24/04/2020,Durante ABRIL recorre los pasillos de un Minisuper y gana dinero,1107,1107 - Tienda Neto-Topilejo,jroman,18554,ASIGNADA POR SISTEMA,31/03/2020,12:58:39,1151832,19.19971,-99.14851,200300654,24/04/2020,2
1,Sin Terminar,Centro Poniente,Centro Poniente 2,DISTRITO FEDERAL,TLALPAN,200300654,24/04/2020,Durante ABRIL recorre los pasillos de un Minisuper y gana dinero,1147,1147 - Tienda Neto-Xicalco,jroman,18718,ASIGNADA POR SISTEMA,31/03/2020,12:58:39,1151847,19.23459,-99.16189,200300654,24/04/2020,2
1,Sin Terminar,Centro Poniente,Centro Poniente 2,DISTRITO FEDERAL,TLALPAN,200300654,24/04/2020,Durante ABRIL recorre los pasillos de un Minisuper y gana dinero,1563,1563 - Tienda Neto-Pedro Moreno,jroman,12169,ASIGNADA POR SISTEMA,31/03/2020,12:58:39,1151907,19.21621,-99.214554,200300654,24/04/2020,2
1,Sin Terminar,Centro Poniente,Centro Poniente 2,DISTRITO FEDERAL,TLALPAN,200300654,24/04/2020,Durante ABRIL recorre los pasillos de un Minisuper y gana dinero,2877,2877 - Tienda Neto-Cedral,jroman,11485,ASIGNADA POR SISTEMA,31/03/2020,12:58:39,1152045,19.266264,-99.16114,200300654,24/04/2020,2
1,Sin Terminar,Centro Poniente,Centro Poniente 2,DISTRITO FEDERAL,TLALPAN,200300654,24/04/2020,Durante ABRIL recorre los pasillos de un Minisuper y gana dinero,3465,3465 - Tienda Neto-Mani,jroman,12140,ASIGNADA POR SISTEMA,31/03/2020,12:58:39,1152127,19.292057,-99.23812,200300654,24/04/2020,2
1,Sin Terminar,Centro Poniente,Centro Poniente 2,DISTRITO FEDERAL,TLALPAN,200300654,24/04/2020,Durante ABRIL recorre los pasillos de un Minisuper y gana dinero,3513,3513 - Tienda Neto-Tekal,jroman,12328,ASIGNADA POR SISTEMA,31/03/2020,12:58:39,1152138,19.283224,-99.22737,200300654,24/04/2020,2
1,Sin Terminar,Centro Poniente,Centro Poniente 2,DISTRITO FEDERAL,TLALPAN,200300654,24/04/2020,Durante ABRIL recorre los pasillos de un Minisuper y gana dinero,3514,3514 - Tienda Neto-Zacaton,jroman,12332,ASIGNADA POR SISTEMA,31/03/2020,12:58:39,1152139,19.269974,-99.24081,200300654,24/04/2020,2
1,Sin Terminar,Centro Poniente,Centro Poniente 2,DISTRITO FEDERAL,TLALPAN,200300654,24/04/2020,Durante ABRIL recorre los pasillos de un Minisuper y gana dinero,431,Gonzalez Varela,jroman,176024,ASIGNADA POR SISTEMA,31/03/2020,12:58:39,1152322,19.26603,-99.16898,200300654,24/04/2020,2
1,Sin Terminar,Centro Poniente,Centro Poniente 2,DISTRITO FEDERAL,TLALPAN,200300654,24/04/2020,Durante ABRIL recorre los pasillos de un Minisuper y gana dinero,4467,4467 - Tienda Neto-Mariano Matamoros,jroman,12141,ASIGNADA POR SISTEMA,31/03/2020,12:58:39,1152345,19.218554,-99.20428,200300654,24/04/2020,2
1,Sin Terminar,Centro Poniente,Centro Poniente 2,DISTRITO FEDERAL,TLALPAN,200300654,24/04/2020,Durante ABRIL recorre los pasillos de un Minisuper y gana dinero,4470,4470 - Tienda Neto-San Miguel Ajusco,jroman,18363,ASIGNADA POR SISTEMA,31/03/2020,12:58:39,1152347,19.224642,-99.20079,200300654,24/04/2020,2
1,Sin Terminar,Centro Poniente,Centro Poniente 2,DISTRITO FEDERAL,TLALPAN,200300654,24/04/2020,Durante ABRIL recorre los pasillos de un Minisuper y gana dinero,4500,4500 - Tienda Neto-La Joya Tlalpan,jroman,11670,ASIGNADA POR SISTEMA,31/03/2020,12:58:39,1152357,19.28036,-99.16603,200300654,24/04/2020,2
1,Sin Terminar,Centro Poniente,Centro Poniente 2,DISTRITO FEDERAL,TLALPAN,200300654,24/04/2020,Durante ABRIL recorre los pasillos de un Minisuper y gana dinero,4566,4566 - Tienda Neto-Santa Cruz,jroman,18368,ASIGNADA POR SISTEMA,31/03/2020,12:58:39,1152378,19.196299,-99.142845,200300654,24/04/2020,2
1,Sin Terminar,Centro Poniente,Centro Poniente 2,DISTRITO FEDERAL,TLALPAN,200300654,24/04/2020,Durante ABRIL recorre los pasillos de un Minisuper y gana dinero,5141,5141 - Tienda Neto-San Pedro Martir,jroman,18518,ASIGNADA POR SISTEMA,31/03/2020,12:58:39,1152409,19.266806,-99.17155,200300654,24/04/2020,2
1,Sin Terminar,Centro Poniente,Centro Poniente 2,DISTRITO FEDERAL,TLALPAN,200300661,24/04/2020,En abril descubre cuánto vale tu prenda de oro,2325,BA EKT AJUSCO (2325),PAX120930,119058,TOMADA POR USUARIO,01/04/2020,12:53:49,1153302,19.289307,-99.21799,200300661,24/04/2020,1
1,Sin Terminar,Centro Poniente,Centro Poniente 2,DISTRITO FEDERAL,TLALPAN,200300661,24/04/2020,En abril descubre cuánto vale tu prenda de oro,2784,BA MEGA SUR INSURGENTES TLALPAN (2784),PAX120930,157885,TOMADA POR USUARIO,01/04/2020,12:53:18,1153328,19.291712,-99.17476,200300661,24/04/2020,1
1,Sin Terminar,Centro Poniente,Centro Poniente 2,DISTRITO FEDERAL,TLALPAN,200300661,24/04/2020,En abril descubre cuánto vale tu prenda de oro,3951,BA PRESTA PRENDA TLALPAN HUIPULCO (3951),PAX20264,120949,TOMADA POR USUARIO,01/04/2020,13:00:52,1153821,19.290492,-99.130963,200300661,24/04/2020,1
1,Sin Terminar,Centro Poniente,Centro Poniente 2,DISTRITO FEDERAL,TLALPAN,200300661,24/04/2020,En abril descubre cuánto vale tu prenda de oro,7676,BA MEGA SAN PEDRO MARTIR (7676),PAX63455,119055,TOMADA POR USUARIO,01/04/2020,12:53:05,1153591,19.26544,-99.17157,200300661,24/04/2020,1
1,Sin Terminar,Centro Poniente,Centro Poniente 2,DISTRITO FEDERAL,TLALPAN,200300661,24/04/2020,En abril descubre cuánto vale tu prenda de oro,9567,BA MEGA SANTA URSULA (9567),PAX120930,121481,TOMADA POR USUARIO,01/04/2020,12:52:46,1153675,19.282862,-99.175385,200300661,24/04/2020,1
1,Sin Terminar,Centro Poniente,Centro Poniente 2,DISTRITO FEDERAL,TLALPAN,200300661,24/04/2020,En abril descubre cuánto vale tu prenda de oro,9695,BA MEGA PICACHO AJUSCO (9695),PAX63455,157513,TOMADA POR USUARIO,01/04/2020,12:53:40,1153701,19.28081,-99.21493,200300661,24/04/2020,1
1,Sin Terminar,Centro Poniente,Centro Poniente 2,DISTRITO FEDERAL,TLALPAN,200100123,05/04/2020,Gana dinero pidiendo información de un crédito del banco_1,2784,BA MEGA SUR INSURGENTES TLALPAN (2784),PAX122018,157885,TOMADA POR USUARIO,01/04/2020,15:11:52,1154838,19.291712,-99.17476,200100123,05/04/2020,1
1,Sin Terminar,Centro Poniente,Centro Poniente 2,DISTRITO FEDERAL,TLALPAN,200100123,05/04/2020,Gana dinero pidiendo información de un producto del banco_1,2325,BA EKT AJUSCO,PAX63455,69561,TOMADA POR USUARIO,01/04/2020,12:53:57,1154767,19.289534,-99.217705,200100123,05/04/2020,1
1,Sin Terminar,Centro Oriente,Centro Oriente 1,DISTRITO FEDERAL,VENUSTIANO CARRANZA,200300654,24/04/2020,Durante ABRIL recorre los pasillos de un Minisuper y gana dinero,136,Ignacio Zaragoza,PAX101747,179083,TOMADA POR USUARIO,01/04/2020,13:19:31,1151885,19.427793,-99.069615,200300654,24/04/2020,1
1,Sin Terminar,Centro Oriente,Centro Oriente 1,DISTRITO FEDERAL,VENUSTIANO CARRANZA,200300654,24/04/2020,Durante ABRIL recorre los pasillos de un Minisuper y gana dinero,2793,2793 - Tienda Neto-Francisco Morazan,PAX101747,11638,TOMADA POR USUARIO,01/04/2020,13:18:25,1152001,19.413548,-99.092209,200300654,24/04/2020,1
1,Sin Terminar,Centro Oriente,Centro Oriente 1,DISTRITO FEDERAL,VENUSTIANO CARRANZA,200300654,24/04/2020,Durante ABRIL recorre los pasillos de un Minisuper y gana dinero,2797,2797 - Tienda Neto-Platino,PAX56747,12175,TOMADA POR USUARIO,01/04/2020,12:59:30,1152005,19.455885,-99.12189,200300654,24/04/2020,1
1,Sin Terminar,Centro Oriente,Centro Oriente 1,DISTRITO FEDERAL,VENUSTIANO CARRANZA,200300654,24/04/2020,Durante ABRIL recorre los pasillos de un Minisuper y gana dinero,2872,2872 - Tienda Neto-Ferrocarril,PAX108920,11637,TOMADA POR USUARIO,01/04/2020,13:09:37,1152042,19.433691,-99.12122,200300654,24/04/2020,1
1,Sin Terminar,Centro Oriente,Centro Oriente 1,DISTRITO FEDERAL,VENUSTIANO CARRANZA,200300654,24/04/2020,Durante ABRIL recorre los pasillos de un Minisuper y gana dinero,3830,3830 - Tienda Neto-Jamaica,PAX82736,14573,TOMADA POR USUARIO,01/04/2020,13:07:40,1152248,19.409977,-99.1243,200300654,24/04/2020,1
1,Sin Terminar,Centro Oriente,Centro Oriente 1,DISTRITO FEDERAL,VENUSTIANO CARRANZA,200300654,24/04/2020,Durante ABRIL recorre los pasillos de un Minisuper y gana dinero,3839,3839 - Tienda Neto-Canal del Norte,PAX117154,11806,TOMADA POR USUARIO,02/04/2020,08:01:19,1155001,19.449501,-99.117744,200300654,24/04/2020,0
1,Sin Terminar,Centro Oriente,Centro Oriente 1,DISTRITO FEDERAL,VENUSTIANO CARRANZA,200300654,24/04/2020,Durante ABRIL recorre los pasillos de un Minisuper y gana dinero,401,La Merced_Neto,PAX93963,173539,TOMADA POR USUARIO,01/04/2020,13:14:06,1152293,19.425222,-99.122996,200300654,24/04/2020,1
1,Sin Terminar,Centro Oriente,Centro Oriente 1,DISTRITO FEDERAL,VENUSTIANO CARRANZA,200300654,24/04/2020,Durante ABRIL recorre los pasillos de un Minisuper y gana dinero,4487,4487 - Tienda Neto-Moctezuma,PAX93963,12148,TOMADA POR USUARIO,01/04/2020,13:13:30,1152353,19.43677,-99.09623,200300654,24/04/2020,1
1,Sin Terminar,Centro Oriente,Centro Oriente 1,DISTRITO FEDERAL,VENUSTIANO CARRANZA,200300654,24/04/2020,Durante ABRIL recorre los pasillos de un Minisuper y gana dinero,4506,4506 - Tienda Neto-Congreso,PAX108920,11997,TOMADA POR USUARIO,01/04/2020,13:10:19,1152359,19.425241,-99.120094,200300654,24/04/2020,1
1,Sin Terminar,Centro Oriente,Centro Oriente 1,DISTRITO FEDERAL,VENUSTIANO CARRANZA,200300654,24/04/2020,Durante ABRIL recorre los pasillos de un Minisuper y gana dinero,7228,7228 - Tienda Neto-Ceballos,PAX93963,11484,TOMADA POR USUARIO,01/04/2020,13:12:35,1152456,19.4291,-99.10663,200300654,24/04/2020,1
1,Sin Terminar,Centro Oriente,Centro Oriente 1,DISTRITO FEDERAL,VENUSTIANO CARRANZA,200300654,24/04/2020,Durante ABRIL recorre los pasillos de un Minisuper y gana dinero,7233,7233 - Tienda Neto-Vidal Alcoser,PAX108920,18710,TOMADA POR USUARIO,01/04/2020,13:07:46,1152461,19.442596,-99.12317,200300654,24/04/2020,1
1,Sin Terminar,Centro Oriente,Centro Oriente 1,DISTRITO FEDERAL,VENUSTIANO CARRANZA,200300654,24/04/2020,Durante ABRIL recorre los pasillos de un Minisuper y gana dinero,7269,7269 - Tienda Neto-Circunvalacion,PAX107518,11985,TOMADA POR USUARIO,01/04/2020,13:20:47,1152474,19.424334,-99.06544,200300654,24/04/2020,1
1,Sin Terminar,Centro Oriente,Centro Oriente 1,DISTRITO FEDERAL,VENUSTIANO CARRANZA,200300654,24/04/2020,Durante ABRIL recorre los pasillos de un Minisuper y gana dinero,7293,7293 - Tienda Neto-Marruecos,PAX93963,12143,TOMADA POR USUARIO,01/04/2020,13:13:04,1152480,19.442272,-99.09633,200300654,24/04/2020,1
1,Sin Terminar,Centro Oriente,Centro Oriente 1,DISTRITO FEDERAL,VENUSTIANO CARRANZA,200300654,24/04/2020,Durante ABRIL recorre los pasillos de un Minisuper y gana dinero,899,899 - Tienda Neto-Arenal,PAX101747,11461,TOMADA POR USUARIO,01/04/2020,13:20:05,1152565,19.426344,-99.056274,200300654,24/04/2020,1
1,Sin Terminar,Centro Oriente,Centro Oriente 1,DISTRITO FEDERAL,VENUSTIANO CARRANZA,200300654,24/04/2020,Durante ABRIL recorre los pasillos de un Minisuper y gana dinero,9064,TIENDA NETO XOCHITLAN,PAX107518,78743,TOMADA POR USUARIO,01/04/2020,13:20:20,1152609,19.429647,-99.05806,200300654,24/04/2020,1
1,Sin Terminar,Centro Oriente,Centro Oriente 1,DISTRITO FEDERAL,VENUSTIANO CARRANZA,200300661,24/04/2020,En abril descubre cuánto vale tu prenda de oro,2716,BA PRESTA PRENDA VALENTIN G FARIAS (2716),PAX89936,119963,TOMADA POR USUARIO,01/04/2020,12:53:44,1153804,19.413177,-99.090971,200300661,24/04/2020,1
1,Sin Terminar,Centro Oriente,Centro Oriente 1,DISTRITO FEDERAL,VENUSTIANO CARRANZA,200300661,24/04/2020,En abril descubre cuánto vale tu prenda de oro,9533,BA MEGA EJE 3 MAGDALENA MIXIHUCA (9533),PAX59219,119496,TOMADA POR USUARIO,01/04/2020,21:02:02,1154921,19.407291,-99.11367,200300661,24/04/2020,1
2,Sin Terminar,Centro Oriente,Centro Oriente 1,DISTRITO FEDERAL,VENUSTIANO CARRANZA,-,-,En Abril Upaxer te regala gasolina 2020,115,E05832_BP Aeropuerto CDMX,PAX93131,159217,TOMADA POR USUARIO,01/04/2020,15:20:01,1154153,19.424699,-99.094354,-,-,1
2,Sin Terminar,Centro Oriente,Centro Oriente 1,DISTRITO FEDERAL,VENUSTIANO CARRANZA,-,-,En Abril Upaxer te regala gasolina 2020,138,E00004_BP Congreso,PAX93131,159229,TOMADA POR USUARIO,01/04/2020,15:22:07,1154175,19.451403,-99.11576,-,-,1
2,Sin Terminar,Centro Oriente,Centro Oriente 1,DISTRITO FEDERAL,VENUSTIANO CARRANZA,-,-,En Abril Upaxer te regala gasolina 2020,285,E00003_BP Aldama,PAX90984,159283,TOMADA POR USUARIO,01/04/2020,13:27:41,1154330,19.440201,-99.151869,-,-,1
1,Sin Terminar,Centro Oriente,Centro Oriente 1,DISTRITO FEDERAL,VENUSTIANO CARRANZA,200100125,05/04/2020,Haz un trámite en la caja del banco y gana dinero_1,6073,BA EKT MOCTEZUMA 2A SECCION,PAX57248,69969,TOMADA POR USUARIO,01/04/2020,14:08:46,1154772,19.428316,-99.097471,200100125,05/04/2020,1
1,Sin Terminar,Centro Poniente,Centro Poniente 2,DISTRITO FEDERAL,XOCHIMILCO,200300654,24/04/2020,Durante ABRIL recorre los pasillos de un Minisuper y gana dinero,1109,1109 - Tienda Neto-Constitucion,jroman,11998,ASIGNADA POR SISTEMA,31/03/2020,12:58:39,1151834,19.278955,-99.122215,200300654,24/04/2020,2
1,Sin Terminar,Centro Poniente,Centro Poniente 2,DISTRITO FEDERAL,XOCHIMILCO,200300654,24/04/2020,Durante ABRIL recorre los pasillos de un Minisuper y gana dinero,112,San Lucas II,jroman,179898,ASIGNADA POR SISTEMA,31/03/2020,12:58:39,1151836,19.247628,-99.106966,200300654,24/04/2020,2
1,Sin Terminar,Centro Poniente,Centro Poniente 2,DISTRITO FEDERAL,XOCHIMILCO,200300654,24/04/2020,Durante ABRIL recorre los pasillos de un Minisuper y gana dinero,246,Santa Cruz 1,jroman,176010,ASIGNADA POR SISTEMA,31/03/2020,12:58:39,1151963,19.24697,-99.083477,200300654,24/04/2020,2
1,Sin Terminar,Centro Poniente,Centro Poniente 2,DISTRITO FEDERAL,XOCHIMILCO,200300654,24/04/2020,Durante ABRIL recorre los pasillos de un Minisuper y gana dinero,3518,3518 - Tienda Neto-Av. Mexico,jroman,12336,ASIGNADA POR SISTEMA,31/03/2020,12:58:39,1152142,19.264358,-99.118202,200300654,24/04/2020,2
1,Sin Terminar,Centro Poniente,Centro Poniente 2,DISTRITO FEDERAL,XOCHIMILCO,200300654,24/04/2020,Durante ABRIL recorre los pasillos de un Minisuper y gana dinero,3725,3725 - Tienda Neto-Nuevo Leon,jroman,14569,ASIGNADA POR SISTEMA,31/03/2020,12:58:39,1152211,19.262291,-99.10249,200300654,24/04/2020,2
1,Sin Terminar,Centro Poniente,Centro Poniente 2,DISTRITO FEDERAL,XOCHIMILCO,200300654,24/04/2020,Durante ABRIL recorre los pasillos de un Minisuper y gana dinero,3815,3815 - Tienda Neto-Xochimilco Morelos,jroman,14571,ASIGNADA POR SISTEMA,31/03/2020,12:58:39,1152238,19.258713,-99.10553,200300654,24/04/2020,2
1,Sin Terminar,Centro Poniente,Centro Poniente 2,DISTRITO FEDERAL,XOCHIMILCO,200300654,24/04/2020,Durante ABRIL recorre los pasillos de un Minisuper y gana dinero,384,De La Paz_Neto,jroman,173531,ASIGNADA POR SISTEMA,31/03/2020,12:58:39,1152256,19.25173,-99.010006,200300654,24/04/2020,2
1,Sin Terminar,Centro Poniente,Centro Poniente 2,DISTRITO FEDERAL,XOCHIMILCO,200300654,24/04/2020,Durante ABRIL recorre los pasillos de un Minisuper y gana dinero,3938,3938 - Tienda Neto-Reclusorio Sur,jroman,16165,ASIGNADA POR SISTEMA,31/03/2020,12:58:39,1152285,19.237589,-99.126625,200300654,24/04/2020,2
1,Sin Terminar,Centro Poniente,Centro Poniente 2,DISTRITO FEDERAL,XOCHIMILCO,200300654,24/04/2020,Durante ABRIL recorre los pasillos de un Minisuper y gana dinero,6704,6704 - Tienda Neto-Pedro Benavides,jroman,12323,ASIGNADA POR SISTEMA,31/03/2020,12:58:39,1152433,19.24646,-99.0758,200300654,24/04/2020,2
1,Sin Terminar,Centro Poniente,Centro Poniente 2,DISTRITO FEDERAL,XOCHIMILCO,200300654,24/04/2020,Durante ABRIL recorre los pasillos de un Minisuper y gana dinero,8955,Tienda Neto Violeta Xochimilco,jroman,63727,ASIGNADA POR SISTEMA,31/03/2020,12:58:39,1152546,19.263784,-99.1007,200300654,24/04/2020,2
